PLATFRMID,NAME,TYPE,STATUS,LATITUDE,LONGITUDE,NAICS_CODE,NAICS_DESC,SOURCE,SOURCEDATE,VAL_METHOD,VAL_DATE,COMPLEXID,NOSTR,OWNER,OPERNAME,POSREL,COMMODITY,INSTALL,REMOVAL,MANNED24HR,DISTLAND,WATERDEPTH,RIGCOUNT,PWRSOURCE,PWRGENFLAG,OILPRDFLAG,GASMTRFLAG,COMPREFLAG,COMPRDFLAG,HELPRTFLAG,BEDCOUNT,BLOCKNO,LEASENO,AREANUMBER,REGION,LOG_WDEPTH,INSTALL_DATE,INSTALL_YEAR,residuals
GOM00001,1,OFFSHORE PLATFORM,REMOVED,29.4751448832,-93.8130031241,211111,CRUDE PETROLEUM AND NATURAL GAS EXTRACTION,BOEM/BSEE,5/3/2016 0:00:00,UNVERIFIED,6/20/2016 0:00:00,2,1,NOT AVAILABLE,"MERIT ENERGY CO., LLC",THIRD PARTY,NONE,1/5/1998 0:00:00,6/9/2010 0:00:00,N,12,38,0,U,N,N,U,N,U,Y,-999,38,G14878,HI,GULF OF MEXICO,3.637586159726386,1998-01-05,1998,-0.04289653322193088
GOM00002,C,OFFSHORE PLATFORM,REMOVED,29.1753931703,-94.3719668304,211111,CRUDE PETROLEUM AND NATURAL GAS EXTRACTION,BOEM/BSEE,5/3/2016 0:00:00,UNVERIFIED,6/20/2016 0:00:00,3,1,NOT AVAILABLE,APACHE CORP.,THIRD PARTY,NONE,2/28/1997 0:00:00,8/8/2013 0:00:00,N,23,54,0,U,N,N,N,N,U,Y,-999,176,G06164,HI,GULF OF MEXICO,3.988984046564275,1997-02-28,1997,0.013757760166646538
GOM00003,1,OFFSHORE PLATFORM,REMOVED,28.9541660185,-93.0147565168,211111,CRUDE PETROLEUM AND NATURAL GAS EXTRACTION,BOEM/BSEE,5/3/2016 0:00:00,UNVERIFIED,6/20/2016 0:00:00,4,1,NOT AVAILABLE,"CAIRN ENERGY USA, INC.",THIRD PARTY,NONE,8/26/1997 0:00:00,6/29/2003 0:00:00,N,50,76,0,U,N,N,Y,N,U,Y,-999,263,G15072,WC,GULF OF MEXICO,4.330733340286331,1997-08-26,1997,0.5797942078079519
GOM00004,9,OFFSHORE PLATFORM,REMOVED,29.0683064761,-89.795079994,211111,CRUDE PETROLEUM AND NATURAL GAS EXTRACTION,BOEM/BSEE,5/3/2016 0:00:00,UNVERIFIED,6/20/2016 0:00:00,5,1,NOT AVAILABLE,APACHE CORP.,THIRD PARTY,NONE,7/22/1997 0:00:00,11/4/2007 0:00:00,N,15,97,0,G,N,N,U,N,U,N,-999,40,G01072,WD,GULF OF MEXICO,4.574710978503383,1997-07-22,1997,0.32375167801182414
GOM00005,CAIS.#21(PLF.CF,OFFSHORE PLATFORM,IN SERVICE,28.89890326,-90.5044168323,211111,CRUDE PETROLEUM AND NATURAL GAS EXTRACTION,BOEM/BSEE,5/3/2016 0:00:00,UNVERIFIED,6/20/2016 0:00:00,6,1,CHEVRON USA INC.,CHEVRON USA INC.,THIRD PARTY,BOTH,6/19/1997 0:00:00,,N,11,55,0,U,N,N,N,N,N,N,-999,51,G01240,ST,GULF OF MEXICO,4.007333185232471,1997-06-19,1997,-0.2598592940410187
GOM00006,B,OFFSHORE PLATFORM,REMOVED,29.1157744585,-88.768342948,211111,CRUDE PETROLEUM AND NATURAL GAS EXTRACTION,BOEM/BSEE,5/3/2016 0:00:00,UNVERIFIED,6/20/2016 0:00:00,8,1,CHEVRON USA INC.,WALTER OIL & GAS CORP.,THIRD PARTY,NONE,8/15/1997 0:00:00,9/26/2009 0:00:00,N,16,283,0,U,N,N,U,N,U,Y,-999,313,G04127,MP,GULF OF MEXICO,5.645446897643238,1997-08-15,1997,0.8931243247145044
GOM00007,E-1,OFFSHORE PLATFORM,IN SERVICE,29.0623297969,-91.2971779914,211111,CRUDE PETROLEUM AND NATURAL GAS EXTRACTION,BOEM/BSEE,5/3/2016 0:00:00,UNVERIFIED,6/20/2016 0:00:00,10,1,NOT AVAILABLE,"W & T OFFSHORE, INC.",THIRD PARTY,NONE,8/30/1977 0:00:00,,N,7,15,0,U,N,N,N,N,N,N,-999,32,335,SS,GULF OF MEXICO,2.70805020110221,1977-08-30,1977,-1.0182148972671574
GOM00008,F,OFFSHORE PLATFORM,REMOVED,29.1245644681,-91.1884704249,211111,CRUDE PETROLEUM AND NATURAL GAS EXTRACTION,BOEM/BSEE,5/3/2016 0:00:00,UNVERIFIED,6/20/2016 0:00:00,11,1,NOT AVAILABLE,"W & T OFFSHORE, INC.",THIRD PARTY,NONE,8/30/1997 0:00:00,11/28/2010 0:00:00,N,7,15,0,U,N,N,U,N,U,N,-999,29,345,SS,GULF OF MEXICO,2.70805020110221,1997-08-30,1997,-0.9469580433846976
GOM00009,D,OFFSHORE PLATFORM,REMOVED,28.2939859775,-93.9763083798,211111,CRUDE PETROLEUM AND NATURAL GAS EXTRACTION,BOEM/BSEE,5/3/2016 0:00:00,UNVERIFIED,6/20/2016 0:00:00,12,1,NOT AVAILABLE,"MARINER ENERGY, INC.",THIRD PARTY,NONE,8/13/1997 0:00:00,9/29/2008 0:00:00,N,93,187,0,U,N,N,N,N,U,Y,-999,A 467,G02688,HI,GULF OF MEXICO,5.231108616854587,1997-08-13,1997,0.7099568513202454
GOM00010,6,OFFSHORE PLATFORM,REMOVED,28.8535730447,-92.1423568874,211111,CRUDE PETROLEUM AND NATURAL GAS EXTRACTION,BOEM/BSEE,5/3/2016 0:00:00,UNVERIFIED,6/20/2016 0:00:00,13,1,NOT AVAILABLE,"W & T OFFSHORE, INC.",THIRD PARTY,NONE,7/20/1997 0:00:00,7/19/2009 0:00:00,N,50,93,0,U,N,N,N,N,U,N,-999,28,G09536,SM,GULF OF MEXICO,4.532599493153256,1997-07-20,1997,0.644434202630336
GOM00011,A,OFFSHORE PLATFORM,REMOVED,29.1395424982,-92.9897078633,211111,CRUDE PETROLEUM AND NATURAL GAS EXTRACTION,BOEM/BSEE,5/3/2016 0:00:00,UNVERIFIED,6/20/2016 0:00:00,14,1,NOT AVAILABLE,"PETROQUEST ENERGY, LLC",THIRD PARTY,NONE,8/5/1997 0:00:00,9/23/2003 0:00:00,N,52,70,0,G,Y,N,N,N,U,Y,8,118,G14362,EC,GULF OF MEXICO,4.248495242049359,1997-08-05,1997,0.6613449103327023
GOM00012,E,OFFSHORE PLATFORM,IN SERVICE,29.1202421396,-91.1792256304,211111,CRUDE PETROLEUM AND NATURAL GAS EXTRACTION,BOEM/BSEE,5/3/2016 0:00:00,UNVERIFIED,6/20/2016 0:00:00,16,1,NOT AVAILABLE,"W & T OFFSHORE, INC.",THIRD PARTY,NONE,8/30/1997 0:00:00,,N,7,12,0,U,N,N,N,N,N,N,-999,28,346,SS,GULF OF MEXICO,2.484906649788,1997-08-30,1997,-1.1785384261913254
GOM00013,7,OFFSHORE PLATFORM,REMOVED,29.2651850306,-91.5708902687,211111,CRUDE PETROLEUM AND NATURAL GAS EXTRACTION,BOEM/BSEE,5/3/2016 0:00:00,UNVERIFIED,6/20/2016 0:00:00,17,1,NOT AVAILABLE,"ENVEN ENERGY VENTURES, LLC",THIRD PARTY,NONE,10/11/1996 0:00:00,7/21/2011 0:00:00,N,15,13,0,U,N,N,U,N,N,N,-999,42,NOT AVAILABLE,EI,GULF OF MEXICO,2.564949357461537,1996-10-11,1996,-0.8449580939531733
GOM00014,"11""""A""""",OFFSHORE PLATFORM,IN SERVICE,28.9601772535,-89.2747337103,211111,CRUDE PETROLEUM AND NATURAL GAS EXTRACTION,BOEM/BSEE,5/3/2016 0:00:00,UNVERIFIED,6/20/2016 0:00:00,19,1,NOT AVAILABLE,"WHITNEY OIL & GAS, LLC",THIRD PARTY,NONE,4/10/1996 0:00:00,,N,4,82,0,U,N,N,U,N,U,N,-999,27,693,SP,GULF OF MEXICO,4.406719247264253,1996-04-10,1996,-0.3873524212437145
GOM00015,D,OFFSHORE PLATFORM,IN SERVICE,28.6067977977,-92.0736007322,211111,CRUDE PETROLEUM AND NATURAL GAS EXTRACTION,BOEM/BSEE,5/3/2016 0:00:00,UNVERIFIED,6/20/2016 0:00:00,21,1,ANKOR E&P HOLDINGS CORP.; KOA ENERGY LP; SAMSUNG OIL & GAS USA CORP.,ANKOR ENERGY LLC,THIRD PARTY,BOTH,11/21/1997 0:00:00,,N,61,136,0,G,Y,Y,N,N,U,Y,2,73,G01205,SM,GULF OF MEXICO,4.912654885736052,1997-11-21,1997,0.6335090703809021
GOM00016,C,OFFSHORE PLATFORM,IN SERVICE,28.2733023227,-91.8661036455,211111,CRUDE PETROLEUM AND NATURAL GAS EXTRACTION,BOEM/BSEE,5/3/2016 0:00:00,UNVERIFIED,6/20/2016 0:00:00,24,1,"FIELDWOOD ENERGY OFFSHORE LLC; DYNAMIC OFFSHORE RESOURCES NS, LLC;",FIELDWOOD ENERGY OFFSHORE LLC,THIRD PARTY,BOTH,8/2/1997 0:00:00,,N,76,228,0,D,Y,Y,N,N,U,Y,2,142,G01216,SM,GULF OF MEXICO,5.429345628954441,1997-08-02,1997,0.4572573245838685
GOM00017,JB,OFFSHORE PLATFORM,IN SERVICE,28.8479373092,-90.5241017623,211111,CRUDE PETROLEUM AND NATURAL GAS EXTRACTION,BOEM/BSEE,5/3/2016 0:00:00,UNVERIFIED,6/20/2016 0:00:00,25,1,APACHE CORP.,"ARENA OFFSHORE, LP",THIRD PARTY,BOTH,9/5/1997 0:00:00,,N,14,64,0,U,N,Y,U,N,U,Y,-999,25,G14535,PL,GULF OF MEXICO,4.158883083359671,1997-09-05,1997,-0.20237845283067024
GOM00018,JC,OFFSHORE PLATFORM,REMOVED,28.850361687,-90.517345362,211111,CRUDE PETROLEUM AND NATURAL GAS EXTRACTION,BOEM/BSEE,5/3/2016 0:00:00,UNVERIFIED,6/20/2016 0:00:00,26,1,APACHE CORP.,FIELDWOOD ENERGY LLC,THIRD PARTY,NONE,9/5/1997 0:00:00,9/6/2014 0:00:00,N,14,63,0,U,N,N,U,N,U,N,-999,25,G14535,PL,GULF OF MEXICO,4.143134726391533,1997-09-05,1997,-0.21620372400955024
GOM00019,186,OFFSHORE PLATFORM,REMOVED,29.453510639,-92.0568634245,211111,CRUDE PETROLEUM AND NATURAL GAS EXTRACTION,BOEM/BSEE,5/3/2016 0:00:00,UNVERIFIED,6/20/2016 0:00:00,27,1,NOT AVAILABLE,CHEVRON USA INC.,THIRD PARTY,NONE,7/29/1997 0:00:00,6/2/2014 0:00:00,N,7,14,0,U,N,N,N,N,U,N,-999,217,310,SM,GULF OF MEXICO,2.639057329615258,1997-07-29,1997,-0.5818658657145024
GOM00020,6,OFFSHORE PLATFORM,REMOVED,29.4084308769,-92.3591894629,211111,CRUDE PETROLEUM AND NATURAL GAS EXTRACTION,BOEM/BSEE,5/3/2016 0:00:00,UNVERIFIED,6/20/2016 0:00:00,28,1,NOT AVAILABLE,STONE ENERGY CORP.,THIRD PARTY,NONE,11/28/1997 0:00:00,10/11/2007 0:00:00,N,10,25,0,U,N,N,N,N,U,N,-999,46,79,VR,GULF OF MEXICO,3.218875824868201,1997-11-28,1997,-0.07181478504830885
GOM00021,B,OFFSHORE PLATFORM,REMOVED,28.8321488176,-92.7604386699,211111,CRUDE PETROLEUM AND NATURAL GAS EXTRACTION,BOEM/BSEE,5/3/2016 0:00:00,UNVERIFIED,6/20/2016 0:00:00,29,1,NOT AVAILABLE,THE HOUSTON EXPLORATION CO.,THIRD PARTY,NONE,10/10/1997 0:00:00,2/7/2001 0:00:00,N,60,95,0,U,N,N,N,N,U,Y,-999,185,G05377,EC,GULF OF MEXICO,4.553876891600541,1997-10-10,1997,0.6816959049303675
GOM00022,F,OFFSHORE PLATFORM,REMOVED,28.7534889111,-91.9206382454,211111,CRUDE PETROLEUM AND NATURAL GAS EXTRACTION,BOEM/BSEE,5/3/2016 0:00:00,UNVERIFIED,6/20/2016 0:00:00,31,1,NOT AVAILABLE,"MARITECH RESOURCES, INC.",THIRD PARTY,NONE,10/6/1997 0:00:00,6/9/2013 0:00:00,N,49,100,0,U,N,N,N,N,U,N,-999,48,786,SM,GULF OF MEXICO,4.605170185988092,1997-10-06,1997,0.5305591947574353
GOM00023,F,OFFSHORE PLATFORM,IN SERVICE,28.1615965314,-92.989493274,211111,CRUDE PETROLEUM AND NATURAL GAS EXTRACTION,BOEM/BSEE,5/3/2016 0:00:00,UNVERIFIED,6/20/2016 0:00:00,32,1,"ENERGY XXI GOM, LLC; BLACK ELK ENERGY OFFSHORE OPERATIONS, LLC","ENERGY XXI GOM, LLC",THIRD PARTY,BOTH,1/1/1997 0:00:00,,N,100,248,0,U,N,N,N,N,U,Y,-999,334,G02062,EC,GULF OF MEXICO,5.513428746164982,1997-01-01,1997,0.6863295665528764
GOM00024,196,OFFSHORE PLATFORM,IN SERVICE,29.2951620964,-91.8761503051,211111,CRUDE PETROLEUM AND NATURAL GAS EXTRACTION,BOEM/BSEE,5/3/2016 0:00:00,UNVERIFIED,6/20/2016 0:00:00,33,1,NOT AVAILABLE,"EPL OIL & GAS, INC.",THIRD PARTY,BOTH,8/8/1997 0:00:00,,N,12,23,0,U,N,Y,N,N,U,N,-999,240,310,SM,GULF OF MEXICO,3.13549421592915,1997-08-08,1997,-0.22761194117675343
GOM00025,2,OFFSHORE PLATFORM,REMOVED,29.9683556982,-88.523800503,211111,CRUDE PETROLEUM AND NATURAL GAS EXTRACTION,BOEM/BSEE,5/3/2016 0:00:00,UNVERIFIED,6/20/2016 0:00:00,35,1,NOT AVAILABLE,CHEVRON USA INC.,THIRD PARTY,NONE,8/17/1997 0:00:00,3/27/1998 0:00:00,N,22,89,-999,U,N,N,U,N,U,N,-999,24,G08763,VK,GULF OF MEXICO,4.48863636973214,1997-08-17,1997,1.3766648935645573
GOM00026,A,OFFSHORE PLATFORM,IN SERVICE,29.3476619562,-88.1133126503,211111,CRUDE PETROLEUM AND NATURAL GAS EXTRACTION,BOEM/BSEE,5/3/2016 0:00:00,UNVERIFIED,6/20/2016 0:00:00,36,1,NOT AVAILABLE,"TRANSCONTINENTAL GAS PIPE LINE CO., LLC",THIRD PARTY,UNKNOWN,1/1/1998 0:00:00,,N,53,282,-999,G,N,N,N,N,U,Y,-999,261,NOT AVAILABLE,MP,GULF OF MEXICO,5.641907070938114,1998-01-01,1998,1.0012579117515905
GOM00027,14,OFFSHORE PLATFORM,IN SERVICE,28.9885034104,-91.4492390386,211111,CRUDE PETROLEUM AND NATURAL GAS EXTRACTION,BOEM/BSEE,5/3/2016 0:00:00,UNVERIFIED,6/20/2016 0:00:00,37,1,NOT AVAILABLE,FIELDWOOD ENERGY LLC,THIRD PARTY,NONE,10/8/1997 0:00:00,,N,20,37,0,U,N,N,N,N,U,N,-999,120,50,EI,GULF OF MEXICO,3.610917912644224,1997-10-08,1997,-0.1961188809414427
GOM00028,24,OFFSHORE PLATFORM,REMOVED,29.0458866844,-91.4505078438,211111,CRUDE PETROLEUM AND NATURAL GAS EXTRACTION,BOEM/BSEE,5/3/2016 0:00:00,UNVERIFIED,6/20/2016 0:00:00,38,1,NOT AVAILABLE,FIELDWOOD ENERGY LLC,THIRD PARTY,NONE,8/20/1997 0:00:00,10/17/2014 0:00:00,N,17,24,0,U,N,N,N,N,U,N,-999,105,797,EI,GULF OF MEXICO,3.178053830347946,1997-08-20,1997,-0.5423631511624789
GOM00029,A,OFFSHORE PLATFORM,REMOVED,29.5124605145,-88.3041606475,211111,CRUDE PETROLEUM AND NATURAL GAS EXTRACTION,BOEM/BSEE,5/3/2016 0:00:00,UNVERIFIED,6/20/2016 0:00:00,39,1,NOT AVAILABLE,"VASTAR RESOURCES, INC.",THIRD PARTY,NONE,3/4/1998 0:00:00,2/23/2004 0:00:00,N,48,163,1,U,N,N,U,N,U,Y,-999,199,G12093,MP,GULF OF MEXICO,5.093750200806762,1998-03-04,1998,0.9705696307918243
GOM00030,C,OFFSHORE PLATFORM,REMOVED,28.6447245189,-90.8885643977,211111,CRUDE PETROLEUM AND NATURAL GAS EXTRACTION,BOEM/BSEE,5/3/2016 0:00:00,UNVERIFIED,6/20/2016 0:00:00,40,1,NOT AVAILABLE,FIELDWOOD ENERGY OFFSHORE LLC,THIRD PARTY,NONE,11/10/1997 0:00:00,10/29/2012 0:00:00,N,27,55,0,U,N,N,U,N,U,N,-999,166,G05549,SS,GULF OF MEXICO,4.007333185232471,1997-11-10,1997,-0.6098270497239016
GOM00031,A,OFFSHORE PLATFORM,IN SERVICE,29.9032767794,-88.4848403777,211111,CRUDE PETROLEUM AND NATURAL GAS EXTRACTION,BOEM/BSEE,5/3/2016 0:00:00,UNVERIFIED,6/20/2016 0:00:00,43,1,NOT AVAILABLE,"EPL OIL & GAS, INC.",THIRD PARTY,UNKNOWN,8/12/1997 0:00:00,,N,19,99,-999,U,N,Y,U,N,U,Y,-999,68,G08765,VK,GULF OF MEXICO,4.59511985013459,1997-08-12,1997,1.3535772578687029
GOM00032,A,OFFSHORE PLATFORM,REMOVED,27.5572544649,-96.8159043296,211111,CRUDE PETROLEUM AND NATURAL GAS EXTRACTION,BOEM/BSEE,5/3/2016 0:00:00,UNVERIFIED,6/20/2016 0:00:00,45,1,NOT AVAILABLE,WILLIAMS PRODUCTION RMT CO.,THIRD PARTY,NONE,11/30/1997 0:00:00,7/22/2002 0:00:00,N,25,125,0,U,N,N,Y,N,N,Y,-999,803,G17076,MU,GULF OF MEXICO,4.828313737302302,1997-11-30,1997,-0.8831911565598816
GOM00033,A,OFFSHORE PLATFORM,REMOVED,28.2392703109,-91.3375948724,211111,CRUDE PETROLEUM AND NATURAL GAS EXTRACTION,BOEM/BSEE,5/3/2016 0:00:00,UNVERIFIED,6/20/2016 0:00:00,46,1,NOT AVAILABLE,MURPHY EXPLORATION & PRODUCTION CO. - USA,THIRD PARTY,NONE,12/2/1997 0:00:00,8/6/2005 0:00:00,N,60,265,0,U,N,N,N,N,U,N,-999,323,G15261,EI,GULF OF MEXICO,5.579729825986222,1997-12-02,1997,0.286053194353288
GOM00034,TEMP.CAIS.#1,OFFSHORE PLATFORM,REMOVED,29.574665339,-93.5606499317,211111,CRUDE PETROLEUM AND NATURAL GAS EXTRACTION,BOEM/BSEE,5/3/2016 0:00:00,UNVERIFIED,6/20/2016 0:00:00,47,1,NOT AVAILABLE,MARATHON OIL CO.,THIRD PARTY,NONE,3/19/1997 0:00:00,6/5/1999 0:00:00,N,15,35,-999,U,N,N,U,N,U,N,-999,80,G16113,WC,GULF OF MEXICO,3.555348061489414,1997-03-19,1997,-0.0022407651745455226
GOM00035,#2,OFFSHORE PLATFORM,IN SERVICE,28.7665549291,-93.4477280436,211111,CRUDE PETROLEUM AND NATURAL GAS EXTRACTION,BOEM/BSEE,5/3/2016 0:00:00,UNVERIFIED,6/20/2016 0:00:00,55,1,NOT AVAILABLE,"PETROQUEST ENERGY, LLC",THIRD PARTY,UNKNOWN,9/29/1997 0:00:00,,N,66,95,0,G,Y,N,Y,Y,U,Y,6,401,G07619,WC,GULF OF MEXICO,4.553876891600541,1997-09-29,1997,0.5834869292277487
GOM00036,D,OFFSHORE PLATFORM,IN SERVICE,28.7666764175,-93.447867918,211111,CRUDE PETROLEUM AND NATURAL GAS EXTRACTION,BOEM/BSEE,5/3/2016 0:00:00,UNVERIFIED,6/20/2016 0:00:00,55,2,NOT AVAILABLE,"PETROQUEST ENERGY, LLC",THIRD PARTY,NATURAL GAS,4/15/2008 0:00:00,,N,66,95,0,G,Y,N,Y,Y,U,Y,6,401,G07619,WC,GULF OF MEXICO,4.553876891600541,2008-04-15,2008,0.5835918431118641
GOM00037,B,OFFSHORE PLATFORM,REMOVED,28.3709954132,-93.4586035405,211111,CRUDE PETROLEUM AND NATURAL GAS EXTRACTION,BOEM/BSEE,5/3/2016 0:00:00,UNVERIFIED,6/20/2016 0:00:00,57,1,NOT AVAILABLE,MCMORAN OIL & GAS LLC,THIRD PARTY,NONE,9/26/1997 0:00:00,7/19/2008 0:00:00,N,100,181,-999,U,N,N,N,N,U,Y,-999,522,G14340,WC,GULF OF MEXICO,5.198497031265826,1997-09-26,1997,0.7659031450673792
GOM00038,B,OFFSHORE PLATFORM,IN SERVICE,28.5107931555,-90.6787007595,211111,CRUDE PETROLEUM AND NATURAL GAS EXTRACTION,BOEM/BSEE,5/3/2016 0:00:00,UNVERIFIED,6/20/2016 0:00:00,58,1,"BANDON OIL AND GAS, LP",FIELDWOOD ENERGY OFFSHORE LLC,THIRD PARTY,BOTH,9/18/1997 0:00:00,,N,36,110,0,U,N,N,Y,Y,N,Y,-999,195,G03593,ST,GULF OF MEXICO,4.700480365792417,1997-09-18,1997,-0.3170227916466066
GOM00039,A,OFFSHORE PLATFORM,IN SERVICE,28.9998529177,-89.7368284093,211111,CRUDE PETROLEUM AND NATURAL GAS EXTRACTION,BOEM/BSEE,5/3/2016 0:00:00,UNVERIFIED,6/20/2016 0:00:00,60,1,NOT AVAILABLE,"W & T OFFSHORE, INC.",THIRD PARTY,NATURAL GAS,10/17/1997 0:00:00,,N,19,140,0,D,Y,N,Y,Y,U,Y,2,65,G15363,WD,GULF OF MEXICO,4.941642422609304,1997-10-17,1997,0.5132907681287104
GOM00040,A,OFFSHORE PLATFORM,REMOVED,29.5678133919,-88.8346616557,211111,CRUDE PETROLEUM AND NATURAL GAS EXTRACTION,BOEM/BSEE,5/3/2016 0:00:00,UNVERIFIED,6/20/2016 0:00:00,61,1,NOT AVAILABLE,APACHE CORP.,THIRD PARTY,NONE,8/16/1997 0:00:00,11/22/2013 0:00:00,N,9,46,-999,U,N,N,N,N,N,N,-999,104,G13960,MP,GULF OF MEXICO,3.828641396489095,1997-08-16,1997,0.11821353169061943
GOM00041,A-GENESIS SPAR,OFFSHORE PLATFORM,IN SERVICE,27.7795236114,-90.5189753758,211111,CRUDE PETROLEUM AND NATURAL GAS EXTRACTION,BOEM/BSEE,5/3/2016 0:00:00,UNVERIFIED,6/20/2016 0:00:00,67,1,CHEVRON USA INC.; EXXON MOBIL CORP.; BHP BILLITON PETROLEUM (DEEPWATER) INC.,CHEVRON USA INC.,THIRD PARTY,BOTH,7/21/1998 0:00:00,,Y,60,2590,1,G,Y,Y,Y,Y,Y,Y,134,205,G05911,GC,GULF OF MEXICO,7.859413154693583,1998-07-21,1998,0.7487068187131163
GOM00042,#14,OFFSHORE PLATFORM,REMOVED,29.2814073294,-92.7299548806,211111,CRUDE PETROLEUM AND NATURAL GAS EXTRACTION,BOEM/BSEE,5/3/2016 0:00:00,UNVERIFIED,6/20/2016 0:00:00,68,1,NOT AVAILABLE,NEWFIELD EXPLORATION CO.,THIRD PARTY,NONE,9/26/1997 0:00:00,8/23/1999 0:00:00,N,23,57,0,U,N,N,N,N,U,N,-999,89,G00935,EC,GULF OF MEXICO,4.04305126783455,1997-09-26,1997,0.6036182230337426
GOM00043,A,OFFSHORE PLATFORM,IN SERVICE,27.9440307967,-92.8773836764,211111,CRUDE PETROLEUM AND NATURAL GAS EXTRACTION,BOEM/BSEE,5/3/2016 0:00:00,UNVERIFIED,6/20/2016 0:00:00,70,1,NOT AVAILABLE,"ENTERPRISE FIELD SERVICES, LLC",THIRD PARTY,BOTH,3/25/1998 0:00:00,,Y,113,443,-999,G,Y,N,Y,Y,U,Y,10,373,G14391,EC,GULF OF MEXICO,6.093569770045136,1998-03-25,1998,0.8241233931539256
GOM00044,B,OFFSHORE PLATFORM,IN SERVICE,28.2566345064,-95.5653229399,211111,CRUDE PETROLEUM AND NATURAL GAS EXTRACTION,BOEM/BSEE,5/3/2016 0:00:00,UNVERIFIED,6/20/2016 0:00:00,74,1,NOT AVAILABLE,ATP OIL & GAS CORP.,THIRD PARTY,UNKNOWN,10/4/1997 0:00:00,,N,31,116,0,U,N,N,U,N,U,Y,-999,544,G10226,BA,GULF OF MEXICO,4.753590191106364,1997-10-04,1997,-0.0595872479722086
GOM00045,CAIS.#198,OFFSHORE PLATFORM,IN SERVICE,29.3446591463,-91.9972198919,211111,CRUDE PETROLEUM AND NATURAL GAS EXTRACTION,BOEM/BSEE,5/3/2016 0:00:00,UNVERIFIED,6/20/2016 0:00:00,75,1,NOT AVAILABLE,CHEVRON USA INC.,THIRD PARTY,NONE,9/9/1997 0:00:00,,N,12,17,0,U,N,N,N,N,U,N,-999,229,310,SM,GULF OF MEXICO,2.833213344056216,1997-09-09,1997,-0.481652288009232
GOM00046,1,OFFSHORE PLATFORM,REMOVED,29.0685708592,-92.2122978146,211111,CRUDE PETROLEUM AND NATURAL GAS EXTRACTION,BOEM/BSEE,5/3/2016 0:00:00,UNVERIFIED,6/20/2016 0:00:00,77,1,NOT AVAILABLE,MURPHY EXPLORATION & PRODUCTION CO.,THIRD PARTY,NONE,1/1/1998 0:00:00,1/12/2004 0:00:00,N,27,62,-999,U,N,N,N,N,U,N,-999,130,G16296,VR,GULF OF MEXICO,4.127134385045092,1998-01-01,1998,0.5188058424939568
GOM00047,A,OFFSHORE PLATFORM,IN SERVICE,28.8834178227,-92.9866449713,211111,CRUDE PETROLEUM AND NATURAL GAS EXTRACTION,BOEM/BSEE,5/3/2016 0:00:00,UNVERIFIED,6/20/2016 0:00:00,78,1,NOT AVAILABLE,FIELDWOOD ENERGY LLC,THIRD PARTY,BOTH,5/5/1998 0:00:00,,N,52,86,0,U,N,N,Y,Y,U,Y,-999,172,G17858,EC,GULF OF MEXICO,4.454347296253507,1998-05-05,1998,0.6348201030535332
GOM00048,B,OFFSHORE PLATFORM,REMOVED,28.4689068275,-93.9751999026,211111,CRUDE PETROLEUM AND NATURAL GAS EXTRACTION,BOEM/BSEE,5/3/2016 0:00:00,UNVERIFIED,6/20/2016 0:00:00,79,1,NOT AVAILABLE,"MARINER ENERGY, INC.",THIRD PARTY,NONE,12/7/1997 0:00:00,10/27/2011 0:00:00,N,74,146,0,U,N,N,N,N,U,Y,-999,A 415,G15793,HI,GULF OF MEXICO,4.983606621708336,1997-12-07,1997,0.663701050125642
GOM00049,B(FMR.A),OFFSHORE PLATFORM,REMOVED,28.3256324763,-93.1068871093,211111,CRUDE PETROLEUM AND NATURAL GAS EXTRACTION,BOEM/BSEE,5/3/2016 0:00:00,UNVERIFIED,6/20/2016 0:00:00,80,1,NOT AVAILABLE,NEWFIELD EXPLORATION CO.,THIRD PARTY,NONE,11/2/1997 0:00:00,5/27/2005 0:00:00,N,100,185,-999,U,N,N,U,N,U,Y,-999,535,G15109,WC,GULF OF MEXICO,5.220355825078324,1997-11-02,1997,0.6861532722771626
GOM00050,A,OFFSHORE PLATFORM,REMOVED,28.2740580851,-93.3271648796,211111,CRUDE PETROLEUM AND NATURAL GAS EXTRACTION,BOEM/BSEE,5/3/2016 0:00:00,UNVERIFIED,6/20/2016 0:00:00,81,1,NOT AVAILABLE,JX NIPPON OIL EXPLORATION (USA) LTD.,THIRD PARTY,NONE,9/25/1997 0:00:00,7/14/2009 0:00:00,N,100,187,0,U,Y,N,Y,Y,U,Y,4,549,G16203,WC,GULF OF MEXICO,5.231108616854587,1997-09-25,1997,0.6473926471229303
GOM00051,A,OFFSHORE PLATFORM,REMOVED,29.1234692502,-91.4538904145,211111,CRUDE PETROLEUM AND NATURAL GAS EXTRACTION,BOEM/BSEE,5/3/2016 0:00:00,UNVERIFIED,6/20/2016 0:00:00,84,1,NOT AVAILABLE,GRYPHON EXPLORATION CO.,THIRD PARTY,NONE,1/4/1998 0:00:00,10/18/2009 0:00:00,N,18,22,0,U,N,N,N,N,U,N,-999,83,G17962,EI,GULF OF MEXICO,3.091042453358316,1998-01-04,1998,-0.5173167883542895
GOM00052,A-CINNAMON,OFFSHORE PLATFORM,IN SERVICE,27.8765491002,-91.8729513414,211111,CRUDE PETROLEUM AND NATURAL GAS EXTRACTION,BOEM/BSEE,5/3/2016 0:00:00,UNVERIFIED,6/20/2016 0:00:00,85,1,NOT AVAILABLE,APACHE CORP.,THIRD PARTY,UNKNOWN,9/23/1998 0:00:00,,Y,98,670,0,U,N,N,U,N,U,Y,-999,89,G15540,GC,GULF OF MEXICO,6.507277712385012,1998-09-23,1998,0.6336670548275194
GOM00053,12,OFFSHORE PLATFORM,IN SERVICE,29.2164031819,-91.5922132018,211111,CRUDE PETROLEUM AND NATURAL GAS EXTRACTION,BOEM/BSEE,5/3/2016 0:00:00,UNVERIFIED,6/20/2016 0:00:00,86,1,NOT AVAILABLE,FIELDWOOD ENERGY LLC,THIRD PARTY,NONE,11/19/1997 0:00:00,,N,15,21,0,U,N,N,N,N,U,Y,-999,53,479,EI,GULF OF MEXICO,3.044522437723423,1997-11-19,1997,-0.42359981202722663
GOM00054,B,OFFSHORE PLATFORM,REMOVED,28.448544059,-93.7056234457,211111,CRUDE PETROLEUM AND NATURAL GAS EXTRACTION,BOEM/BSEE,5/3/2016 0:00:00,UNVERIFIED,6/20/2016 0:00:00,87,1,NOT AVAILABLE,BADGER OIL CORP.,THIRD PARTY,NONE,10/22/1997 0:00:00,10/7/2012 0:00:00,N,84,158,0,U,Y,N,Y,Y,U,Y,-999,A 263,G13342,HI,GULF OF MEXICO,5.062595033026967,1997-10-22,1997,0.7335517464945704
GOM00055,2,OFFSHORE PLATFORM,REMOVED,29.2162916836,-91.6011622482,211111,CRUDE PETROLEUM AND NATURAL GAS EXTRACTION,BOEM/BSEE,5/3/2016 0:00:00,UNVERIFIED,6/20/2016 0:00:00,89,1,NOT AVAILABLE,"APACHE SHELF, INC.",THIRD PARTY,NONE,11/20/1997 0:00:00,9/14/2013 0:00:00,N,15,21,0,U,N,N,U,N,U,N,-999,53,479,EI,GULF OF MEXICO,3.044522437723423,1997-11-20,1997,-0.42291912935585385
GOM00056,A,OFFSHORE PLATFORM,REMOVED,28.5816085799,-90.9644941699,211111,CRUDE PETROLEUM AND NATURAL GAS EXTRACTION,BOEM/BSEE,5/3/2016 0:00:00,UNVERIFIED,6/20/2016 0:00:00,90,1,NOT AVAILABLE,APACHE CORP.,THIRD PARTY,NONE,9/29/1997 0:00:00,5/11/2005 0:00:00,N,42,78,0,U,N,N,U,N,U,N,-999,192,G16390,SS,GULF OF MEXICO,4.356708826689592,1997-09-29,1997,-0.3589602087476669
GOM00057,CAIS.#15,OFFSHORE PLATFORM,REMOVED,29.6437833321,-93.5868716751,211111,CRUDE PETROLEUM AND NATURAL GAS EXTRACTION,BOEM/BSEE,5/3/2016 0:00:00,UNVERIFIED,6/20/2016 0:00:00,91,1,NOT AVAILABLE,STONE ENERGY CORP.,THIRD PARTY,NONE,2/19/1997 0:00:00,4/13/2013 0:00:00,N,7,34,-999,U,N,N,U,N,U,N,-999,56,301,WC,GULF OF MEXICO,3.526360524616162,1997-02-19,1997,-0.03727602429058097
GOM00058,A,OFFSHORE PLATFORM,REMOVED,29.2557865287,-93.3661263134,211111,CRUDE PETROLEUM AND NATURAL GAS EXTRACTION,BOEM/BSEE,5/3/2016 0:00:00,UNVERIFIED,6/20/2016 0:00:00,92,1,NOT AVAILABLE,"MARITECH RESOURCES, INC.",THIRD PARTY,NONE,1/27/1998 0:00:00,11/4/2007 0:00:00,N,40,53,0,U,N,N,U,N,U,Y,-999,206,G03496,WC,GULF OF MEXICO,3.970291913552122,1998-01-27,1998,0.37919511329945044
GOM00059,JA,OFFSHORE PLATFORM,REMOVED,28.9099133243,-93.1387354288,211111,CRUDE PETROLEUM AND NATURAL GAS EXTRACTION,BOEM/BSEE,5/3/2016 0:00:00,UNVERIFIED,6/20/2016 0:00:00,93,1,NOT AVAILABLE,SHELL OFFSHORE INC.,THIRD PARTY,NONE,11/24/1997 0:00:00,12/23/2001 0:00:00,N,51,79,-999,U,N,N,U,N,U,Y,-999,270,G15073,WC,GULF OF MEXICO,4.369447852467021,1997-11-24,1997,0.5655569842746093
GOM00060,JA,OFFSHORE PLATFORM,REMOVED,28.8579443701,-91.6713623776,211111,CRUDE PETROLEUM AND NATURAL GAS EXTRACTION,BOEM/BSEE,5/3/2016 0:00:00,UNVERIFIED,6/20/2016 0:00:00,94,1,NOT AVAILABLE,APACHE CORP.,THIRD PARTY,NONE,11/10/1997 0:00:00,5/14/2005 0:00:00,N,30,72,0,U,N,N,N,N,U,N,-999,152,G15244,EI,GULF OF MEXICO,4.276666119016055,1997-11-10,1997,0.3139601790283555
GOM00061,B,OFFSHORE PLATFORM,IN SERVICE,28.4503610695,-93.2204432255,211111,CRUDE PETROLEUM AND NATURAL GAS EXTRACTION,BOEM/BSEE,5/3/2016 0:00:00,UNVERIFIED,6/20/2016 0:00:00,95,1,NOT AVAILABLE,"ENVEN ENERGY VENTURES, LLC",THIRD PARTY,NONE,12/27/1997 0:00:00,,N,85,157,0,U,N,N,N,Y,U,Y,2,504,G02006,WC,GULF OF MEXICO,5.056245805348308,1997-12-27,1997,0.7167371443470891
GOM00062,JA,OFFSHORE PLATFORM,REMOVED,29.1802145262,-88.7649908309,211111,CRUDE PETROLEUM AND NATURAL GAS EXTRACTION,BOEM/BSEE,5/3/2016 0:00:00,UNVERIFIED,6/20/2016 0:00:00,96,1,APACHE CORP.,APACHE CORP.,THIRD PARTY,NONE,11/20/1997 0:00:00,8/8/2007 0:00:00,N,30,248,-999,U,N,Y,U,N,U,Y,-999,312,G16520,MP,GULF OF MEXICO,5.513428746164982,1997-11-20,1997,0.9151355655575113
GOM00063,B,OFFSHORE PLATFORM,REMOVED,29.3461647644,-88.8280548899,211111,CRUDE PETROLEUM AND NATURAL GAS EXTRACTION,BOEM/BSEE,5/3/2016 0:00:00,UNVERIFIED,6/20/2016 0:00:00,97,1,"MCMORAN OIL & GAS LLC; PIQUANT, INC.",NEWFIELD EXPLORATION CO.,THIRD PARTY,NONE,11/2/1997 0:00:00,9/28/2006 0:00:00,Y,15,158,-999,D,Y,N,N,N,U,Y,4,138,G16500,MP,GULF OF MEXICO,5.062595033026967,1997-11-02,1997,0.884974840103653
GOM00064,CAIS.#195,OFFSHORE PLATFORM,REMOVED,29.3715864187,-91.9935486696,211111,CRUDE PETROLEUM AND NATURAL GAS EXTRACTION,BOEM/BSEE,5/3/2016 0:00:00,UNVERIFIED,6/20/2016 0:00:00,98,1,NOT AVAILABLE,CHEVRON USA INC.,THIRD PARTY,NONE,11/16/1997 0:00:00,9/2/2003 0:00:00,N,15,16,0,U,N,N,N,N,U,N,-999,229,310,SM,GULF OF MEXICO,2.772588722239781,1997-11-16,1997,-0.5165023380134319
GOM00065,CAIS.#1,OFFSHORE PLATFORM,REMOVED,29.247362438,-91.7778557969,211111,CRUDE PETROLEUM AND NATURAL GAS EXTRACTION,BOEM/BSEE,5/3/2016 0:00:00,UNVERIFIED,6/20/2016 0:00:00,103,1,NOT AVAILABLE,STONE ENERGY CORP.,THIRD PARTY,NONE,7/24/1998 0:00:00,5/20/2008 0:00:00,N,25,23,0,U,N,N,N,N,U,N,-999,49,G17959,EI,GULF OF MEXICO,3.13549421592915,1998-07-24,1998,-0.28284314787880005
GOM00066,A,OFFSHORE PLATFORM,REMOVED,29.481385735,-88.2306762641,211111,CRUDE PETROLEUM AND NATURAL GAS EXTRACTION,BOEM/BSEE,5/3/2016 0:00:00,UNVERIFIED,6/20/2016 0:00:00,104,1,NOT AVAILABLE,"EP ENERGY MANAGEMENT, LLC",THIRD PARTY,NONE,2/10/1998 0:00:00,9/11/2002 0:00:00,Y,75,161,-999,D,N,N,N,N,U,N,9,198,G13659,MP,GULF OF MEXICO,5.081404364984463,1998-02-10,1998,0.8410245513347387
GOM00067,A (VIRGO),OFFSHORE PLATFORM,IN SERVICE,29.1821502831,-88.1677490563,211111,CRUDE PETROLEUM AND NATURAL GAS EXTRACTION,BOEM/BSEE,5/3/2016 0:00:00,UNVERIFIED,6/20/2016 0:00:00,113,1,"W & T ENERGY VI, LLC; ENVEN ENERGY VENTURES, LLC; ENERGY XXI GOM, LLC; BLACK ELK ENERGY OFFSHORE OPERATIONS, LLC","W & T ENERGY VI, LLC",THIRD PARTY,BOTH,9/17/1999 0:00:00,,Y,50,1130,0,G,Y,Y,Y,Y,U,Y,20,823,G10942,VK,GULF OF MEXICO,7.029972911706386,1999-09-17,1999,2.0074370252536706
GOM00068,A,OFFSHORE PLATFORM,REMOVED,28.8531694093,-91.4891958035,211111,CRUDE PETROLEUM AND NATURAL GAS EXTRACTION,BOEM/BSEE,5/3/2016 0:00:00,UNVERIFIED,6/20/2016 0:00:00,114,1,NOT AVAILABLE,"ENERGY RESOURCE TECHNOLOGY GOM, INC.",THIRD PARTY,NONE,12/17/1998 0:00:00,3/30/2013 0:00:00,N,30,60,0,U,N,N,N,N,U,N,-999,148,G13620,EI,GULF OF MEXICO,4.0943445622221,1998-12-17,1998,0.08091526120564208
GOM00069,E,OFFSHORE PLATFORM,IN SERVICE,28.8396959836,-90.6337562295,211111,CRUDE PETROLEUM AND NATURAL GAS EXTRACTION,BOEM/BSEE,5/3/2016 0:00:00,UNVERIFIED,6/20/2016 0:00:00,116,1,TALOS ENERGY OFFSHORE LLC,TALOS ENERGY OFFSHORE LLC,THIRD PARTY,NONE,10/25/1998 0:00:00,,N,25,61,0,U,N,N,N,N,N,Y,-999,23,G01238,PL,GULF OF MEXICO,4.110873864173311,1998-10-25,1998,-0.21912828056564404
GOM00070,15,OFFSHORE PLATFORM,IN SERVICE,28.9835417578,-91.45031898,211111,CRUDE PETROLEUM AND NATURAL GAS EXTRACTION,BOEM/BSEE,5/3/2016 0:00:00,UNVERIFIED,6/20/2016 0:00:00,117,1,NOT AVAILABLE,FIELDWOOD ENERGY LLC,THIRD PARTY,BOTH,12/15/1997 0:00:00,,N,20,35,0,U,N,Y,N,N,U,N,-999,120,50,EI,GULF OF MEXICO,3.555348061489414,1997-12-15,1997,-0.2590836005706736
GOM00071,CAISSON #2,OFFSHORE PLATFORM,REMOVED,28.6933646423,-93.1384645746,211111,CRUDE PETROLEUM AND NATURAL GAS EXTRACTION,BOEM/BSEE,5/3/2016 0:00:00,UNVERIFIED,6/20/2016 0:00:00,121,1,NOT AVAILABLE,EL PASO PRODUCTION GOM INC.,THIRD PARTY,NONE,11/8/1997 0:00:00,7/1/2005 0:00:00,N,70,102,-999,U,N,N,N,N,U,Y,-999,431,G10584,WC,GULF OF MEXICO,4.624972813284271,1997-11-08,1997,0.5917951522764584
GOM00072,JA,OFFSHORE PLATFORM,IN SERVICE,29.2290739623,-94.4645441667,211111,CRUDE PETROLEUM AND NATURAL GAS EXTRACTION,BOEM/BSEE,5/3/2016 0:00:00,UNVERIFIED,6/20/2016 0:00:00,123,1,NOT AVAILABLE,"FAIRWAYS OFFSHORE EXPLORATION, INC.",THIRD PARTY,UNKNOWN,1/30/1998 0:00:00,,N,17,52,0,U,N,N,N,N,U,Y,-999,154,G14159,HI,GULF OF MEXICO,3.951243718581428,1998-01-30,1998,-0.057651504540753074
GOM00073,A,OFFSHORE PLATFORM,REMOVED,28.3371722822,-93.3461410332,211111,CRUDE PETROLEUM AND NATURAL GAS EXTRACTION,BOEM/BSEE,5/3/2016 0:00:00,UNVERIFIED,6/20/2016 0:00:00,124,1,NOT AVAILABLE,"CENTURY EXPLORATION NEW ORLEANS, LLC",THIRD PARTY,NONE,1/28/1998 0:00:00,9/30/2014 0:00:00,N,95,184,0,U,N,N,N,N,U,Y,-999,540,G15110,WC,GULF OF MEXICO,5.214935757608986,1998-01-28,1998,0.7264199672981011
GOM00074,C,OFFSHORE PLATFORM,REMOVED,28.005192136,-94.136217898,211111,CRUDE PETROLEUM AND NATURAL GAS EXTRACTION,BOEM/BSEE,5/3/2016 0:00:00,UNVERIFIED,6/20/2016 0:00:00,125,1,NOT AVAILABLE,FOREST OIL CORP.,THIRD PARTY,NONE,12/20/1997 0:00:00,8/15/2007 0:00:00,N,100,280,0,U,N,N,Y,N,U,Y,10,A 551,G03757,HI,GULF OF MEXICO,5.634789603169249,1997-12-20,1997,0.7281998215293264
GOM00075,A,OFFSHORE PLATFORM,REMOVED,28.3916635905,-93.1989007374,211111,CRUDE PETROLEUM AND NATURAL GAS EXTRACTION,BOEM/BSEE,5/3/2016 0:00:00,UNVERIFIED,6/20/2016 0:00:00,126,1,NOT AVAILABLE,"MARITECH RESOURCES, INC.",THIRD PARTY,NONE,1/1/1998 0:00:00,7/9/2008 0:00:00,N,91,171,0,U,N,N,N,N,U,Y,-999,528,G16202,WC,GULF OF MEXICO,5.14166355650266,1998-01-01,1998,0.7174735594342359
GOM00076,B,OFFSHORE PLATFORM,REMOVED,29.1885354444,-91.5955445862,211111,CRUDE PETROLEUM AND NATURAL GAS EXTRACTION,BOEM/BSEE,5/3/2016 0:00:00,UNVERIFIED,6/20/2016 0:00:00,131,1,NOT AVAILABLE,STONE ENERGY CORP.,THIRD PARTY,NONE,12/22/1998 0:00:00,12/3/2000 0:00:00,N,15,25,0,U,N,N,Y,N,U,N,-999,64,G02098,EI,GULF OF MEXICO,3.218875824868201,1998-12-22,1998,-0.28414412401784794
GOM00077,A,OFFSHORE PLATFORM,IN SERVICE,28.7194429799,-91.3256475348,211111,CRUDE PETROLEUM AND NATURAL GAS EXTRACTION,BOEM/BSEE,5/3/2016 0:00:00,UNVERIFIED,6/20/2016 0:00:00,132,1,APACHE CORP.,"ENVEN ENERGY VENTURES, LLC",THIRD PARTY,BOTH,5/10/1998 0:00:00,,N,32,66,0,U,N,Y,N,N,U,Y,-999,151,G15282,SS,GULF OF MEXICO,4.189654742026425,1998-05-10,1998,-0.10665244495256765
GOM00078,A(FMR CAIS#1),OFFSHORE PLATFORM,REMOVED,28.6645046296,-90.4512308728,211111,CRUDE PETROLEUM AND NATURAL GAS EXTRACTION,BOEM/BSEE,5/3/2016 0:00:00,UNVERIFIED,6/20/2016 0:00:00,134,1,NOT AVAILABLE,APACHE CORP.,THIRD PARTY,NONE,7/17/1998 0:00:00,6/11/2013 0:00:00,N,26,70,0,U,N,N,N,Y,U,Y,-999,139,G18040,ST,GULF OF MEXICO,4.248495242049359,1998-07-17,1998,-0.5413420650749847
GOM00079,BJ,OFFSHORE PLATFORM,REMOVED,28.9351179491,-92.5340606882,211111,CRUDE PETROLEUM AND NATURAL GAS EXTRACTION,BOEM/BSEE,5/3/2016 0:00:00,UNVERIFIED,6/20/2016 0:00:00,135,1,NOT AVAILABLE,MCMORAN OIL & GAS LLC,THIRD PARTY,NONE,7/2/1998 0:00:00,8/14/2008 0:00:00,N,41,93,-999,U,N,N,Y,N,U,Y,-999,160,G08668,VR,GULF OF MEXICO,4.532599493153256,1998-07-02,1998,0.7771853329892195
GOM00080,1,OFFSHORE PLATFORM,REMOVED,29.2154763984,-93.5705763999,211111,CRUDE PETROLEUM AND NATURAL GAS EXTRACTION,BOEM/BSEE,5/3/2016 0:00:00,UNVERIFIED,6/20/2016 0:00:00,136,1,NOT AVAILABLE,"SPN RESOURCES, LLC",THIRD PARTY,NONE,4/16/1998 0:00:00,9/4/2007 0:00:00,N,37,52,0,U,N,N,U,N,U,Y,-999,305,G25893,WC,GULF OF MEXICO,3.951243718581428,1998-04-16,1998,0.2823604555189023
GOM00081,B,OFFSHORE PLATFORM,IN SERVICE,28.5159010624,-90.2775196855,211111,CRUDE PETROLEUM AND NATURAL GAS EXTRACTION,BOEM/BSEE,5/3/2016 0:00:00,UNVERIFIED,6/20/2016 0:00:00,137,1,NOT AVAILABLE,FIELDWOOD ENERGY OFFSHORE LLC,THIRD PARTY,BOTH,1/25/1998 0:00:00,,Y,37,110,0,G,Y,N,Y,N,U,Y,12,179,G12020,ST,GULF OF MEXICO,4.700480365792417,1998-01-25,1998,-0.5399005089120257
GOM00082,CAIS.#33,OFFSHORE PLATFORM,IN SERVICE,28.979414822,-91.4844266439,211111,CRUDE PETROLEUM AND NATURAL GAS EXTRACTION,BOEM/BSEE,5/3/2016 0:00:00,UNVERIFIED,6/20/2016 0:00:00,139,1,NOT AVAILABLE,FIELDWOOD ENERGY LLC,THIRD PARTY,BOTH,1/1/1998 0:00:00,,N,22,41,0,U,N,Y,N,N,U,N,-999,119,49,EI,GULF OF MEXICO,3.713572066704308,1998-01-01,1998,-0.10006427614140367
GOM00083,33 AUX,OFFSHORE PLATFORM,IN SERVICE,28.9793295744,-91.4844265127,211111,CRUDE PETROLEUM AND NATURAL GAS EXTRACTION,BOEM/BSEE,5/3/2016 0:00:00,UNVERIFIED,6/20/2016 0:00:00,139,2,NOT AVAILABLE,FIELDWOOD ENERGY LLC,THIRD PARTY,UNKNOWN,2/17/2010 0:00:00,,N,22,41,0,U,N,Y,N,N,U,N,-999,119,49,EI,GULF OF MEXICO,3.713572066704308,2010-02-17,2010,-0.10019467284288286
GOM00084,CAIS.#1,OFFSHORE PLATFORM,IN SERVICE,28.926823676,-91.7530684969,211111,CRUDE PETROLEUM AND NATURAL GAS EXTRACTION,BOEM/BSEE,5/3/2016 0:00:00,UNVERIFIED,6/20/2016 0:00:00,141,1,APACHE CORP.,FIELDWOOD ENERGY LLC,THIRD PARTY,BOTH,5/23/1998 0:00:00,,N,35,64,0,U,N,N,N,N,U,Y,-999,136,G03152,EI,GULF OF MEXICO,4.158883083359671,1998-05-23,1998,0.31734917411664476
GOM00085,B,OFFSHORE PLATFORM,IN SERVICE,29.3958886532,-93.3125758745,211111,CRUDE PETROLEUM AND NATURAL GAS EXTRACTION,BOEM/BSEE,5/3/2016 0:00:00,UNVERIFIED,6/20/2016 0:00:00,144,1,NOT AVAILABLE,"ENERGY RESOURCE TECHNOLOGY GOM, INC.",THIRD PARTY,NONE,7/6/1998 0:00:00,,N,25,34,0,U,N,N,N,N,U,Y,-999,170,G04085,WC,GULF OF MEXICO,3.526360524616162,1998-07-06,1998,0.0150180141238212
GOM00086,B,OFFSHORE PLATFORM,REMOVED,28.278306574,-95.4882342743,211111,CRUDE PETROLEUM AND NATURAL GAS EXTRACTION,BOEM/BSEE,5/3/2016 0:00:00,UNVERIFIED,6/20/2016 0:00:00,146,1,NOT AVAILABLE,NEWFIELD EXPLORATION CO.,THIRD PARTY,NONE,3/24/1998 0:00:00,8/9/2007 0:00:00,N,25,118,0,U,N,N,N,Y,U,Y,-999,A   7,G04558,BA,GULF OF MEXICO,4.770684624465665,1998-03-24,1998,-0.004631427032856017
GOM00087,A,OFFSHORE PLATFORM,IN SERVICE,28.0537780751,-90.5477248465,211111,CRUDE PETROLEUM AND NATURAL GAS EXTRACTION,BOEM/BSEE,5/3/2016 0:00:00,UNVERIFIED,6/20/2016 0:00:00,147,1,"W & T ENERGY VI, LLC","W & T OFFSHORE, INC.",THIRD PARTY,BOTH,10/16/1998 0:00:00,,Y,66,557,0,G,Y,Y,Y,Y,U,Y,10,910,G13079,EW,GULF OF MEXICO,6.322565239927284,1998-10-16,1998,0.04736217090058226
GOM00088,D,OFFSHORE PLATFORM,REMOVED,28.4279327145,-93.0316804975,211111,CRUDE PETROLEUM AND NATURAL GAS EXTRACTION,BOEM/BSEE,5/3/2016 0:00:00,UNVERIFIED,6/20/2016 0:00:00,148,1,NOT AVAILABLE,EL PASO PRODUCTION GOM INC.,THIRD PARTY,NONE,2/17/1998 0:00:00,10/14/2001 0:00:00,N,70,150,-999,U,N,N,U,N,U,Y,-999,509,G15101,WC,GULF OF MEXICO,5.010635294096256,1998-02-17,1998,0.6209603988565062
GOM00089,CAIS.#23,OFFSHORE PLATFORM,IN SERVICE,29.126684813,-91.7190073168,211111,CRUDE PETROLEUM AND NATURAL GAS EXTRACTION,BOEM/BSEE,5/3/2016 0:00:00,UNVERIFIED,6/20/2016 0:00:00,150,1,NOT AVAILABLE,FIELDWOOD ENERGY LLC,THIRD PARTY,NONE,2/8/1998 0:00:00,,N,24,12,0,U,N,N,N,N,U,N,-999,89,44,EI,GULF OF MEXICO,2.484906649788,1998-02-08,1998,-1.084833692516158
GOM00090,197,OFFSHORE PLATFORM,REMOVED,29.4662755651,-92.1520882913,211111,CRUDE PETROLEUM AND NATURAL GAS EXTRACTION,BOEM/BSEE,5/3/2016 0:00:00,UNVERIFIED,6/20/2016 0:00:00,151,1,NOT AVAILABLE,"EP ENERGY E&P CO., LP",THIRD PARTY,NONE,1/10/1998 0:00:00,10/25/2013 0:00:00,N,7,12,0,U,N,N,N,N,U,N,-999,210,310,SM,GULF OF MEXICO,2.484906649788,1998-01-10,1998,-0.7355382116394953
GOM00091,CAIS.#11,OFFSHORE PLATFORM,REMOVED,29.321660369,-92.1099634439,211111,CRUDE PETROLEUM AND NATURAL GAS EXTRACTION,BOEM/BSEE,5/3/2016 0:00:00,UNVERIFIED,6/20/2016 0:00:00,152,1,NOT AVAILABLE,JX NIPPON OIL EXPLORATION (USA) LTD.,THIRD PARTY,NONE,4/8/1998 0:00:00,12/7/2010 0:00:00,N,20,18,0,U,N,N,N,N,U,N,-999,234,G02300,SM,GULF OF MEXICO,2.890371757896165,1998-04-08,1998,-0.4513406025919804
GOM00092,A,OFFSHORE PLATFORM,REMOVED,28.3244923299,-92.2830462552,211111,CRUDE PETROLEUM AND NATURAL GAS EXTRACTION,BOEM/BSEE,5/3/2016 0:00:00,UNVERIFIED,6/20/2016 0:00:00,159,1,NOT AVAILABLE,SENECA RESOURCES CORP.,THIRD PARTY,NONE,1/22/1998 0:00:00,8/6/2010 0:00:00,N,74,206,0,G,Y,N,N,N,U,Y,4,309,G16310,VR,GULF OF MEXICO,5.327876168789581,1998-01-22,1998,0.6059436624430337
GOM00093,1,OFFSHORE PLATFORM,REMOVED,29.1808638058,-93.9795838953,211111,CRUDE PETROLEUM AND NATURAL GAS EXTRACTION,BOEM/BSEE,5/3/2016 0:00:00,UNVERIFIED,6/20/2016 0:00:00,160,1,NOT AVAILABLE,APACHE CORP.,THIRD PARTY,NONE,3/25/1998 0:00:00,12/6/2008 0:00:00,N,30,56,0,U,N,N,N,N,U,Y,-999,169,G14161,HI,GULF OF MEXICO,4.02535169073515,1998-03-25,1998,0.20801897840836148
GOM00094,CAIS.#1(PLTF. A,OFFSHORE PLATFORM,IN SERVICE,30.0016184059,-88.5517701468,211111,CRUDE PETROLEUM AND NATURAL GAS EXTRACTION,BOEM/BSEE,5/3/2016 0:00:00,UNVERIFIED,6/20/2016 0:00:00,163,1,NOT AVAILABLE,CHEVRON USA INC.,THIRD PARTY,UNKNOWN,3/15/1998 0:00:00,,N,14,85,-999,U,N,N,N,N,U,N,-999,991,G15403,MO,GULF OF MEXICO,4.442651256490317,1998-03-15,1998,1.3974643328899763
GOM00095,A(FMR CAIS.#1),OFFSHORE PLATFORM,REMOVED,28.6131910888,-91.433903494,211111,CRUDE PETROLEUM AND NATURAL GAS EXTRACTION,BOEM/BSEE,5/3/2016 0:00:00,UNVERIFIED,6/20/2016 0:00:00,164,1,NOT AVAILABLE,"MARITECH RESOURCES, INC.",THIRD PARTY,NONE,5/22/1998 0:00:00,8/22/2004 0:00:00,N,48,105,-999,U,N,N,N,N,U,Y,-999,214,G17986,EI,GULF OF MEXICO,4.653960350157523,1998-05-22,1998,0.19546359094889443
GOM00096,A,OFFSHORE PLATFORM,IN SERVICE,28.3843700136,-90.5289980877,211111,CRUDE PETROLEUM AND NATURAL GAS EXTRACTION,BOEM/BSEE,5/3/2016 0:00:00,UNVERIFIED,6/20/2016 0:00:00,165,1,NOT AVAILABLE,WALTER OIL & GAS CORP.,THIRD PARTY,NONE,3/5/1998 0:00:00,,N,55,154,0,U,N,N,N,N,U,N,-999,220,G24980,ST,GULF OF MEXICO,5.03695260241363,1998-03-05,1998,-0.37242446684388586
GOM00097,CAIS.#1,OFFSHORE PLATFORM,REMOVED,29.097362669,-91.5362563506,211111,CRUDE PETROLEUM AND NATURAL GAS EXTRACTION,BOEM/BSEE,5/3/2016 0:00:00,UNVERIFIED,6/20/2016 0:00:00,166,1,NOT AVAILABLE,WESTPORT RESOURCES CORP.,THIRD PARTY,NONE,2/5/1998 0:00:00,7/7/2002 0:00:00,N,30,27,0,U,N,N,U,N,U,N,-999,85,G16347,EI,GULF OF MEXICO,3.295836866004329,1998-02-05,1998,-0.33632404141956584
GOM00098,D(FMR.CAIS.#16),OFFSHORE PLATFORM,REMOVED,29.3955848895,-93.200517928,211111,CRUDE PETROLEUM AND NATURAL GAS EXTRACTION,BOEM/BSEE,5/3/2016 0:00:00,UNVERIFIED,6/20/2016 0:00:00,167,1,NOT AVAILABLE,"APACHE SHELF, INC.",THIRD PARTY,NONE,11/29/1998 0:00:00,10/9/2013 0:00:00,N,25,49,0,U,N,N,N,N,U,Y,-999,172,G01998,WC,GULF OF MEXICO,3.891820298110626,1998-11-29,1998,0.41438254037874866
GOM00099,A,OFFSHORE PLATFORM,REMOVED,29.0957085157,-94.7360426093,211111,CRUDE PETROLEUM AND NATURAL GAS EXTRACTION,BOEM/BSEE,5/3/2016 0:00:00,UNVERIFIED,6/20/2016 0:00:00,168,1,NOT AVAILABLE,STONE ENERGY CORP.,THIRD PARTY,NONE,2/9/1998 0:00:00,12/31/2008 0:00:00,N,12,63,0,U,N,N,N,N,U,Y,-999,213,G17120,GA,GULF OF MEXICO,4.143134726391533,1998-02-09,1998,-0.011763450315787516
GOM00100,A,OFFSHORE PLATFORM,REMOVED,28.2106038184,-92.2613231225,211111,CRUDE PETROLEUM AND NATURAL GAS EXTRACTION,BOEM/BSEE,5/3/2016 0:00:00,UNVERIFIED,6/20/2016 0:00:00,169,1,NOT AVAILABLE,SAMEDAN OIL CORP.,THIRD PARTY,NONE,5/6/1998 0:00:00,8/25/2005 0:00:00,N,84,227,0,U,N,N,U,N,U,Y,-999,336,G13892,VR,GULF OF MEXICO,5.424950017481403,1998-05-06,1998,0.4759306146442368
GOM00101,I,OFFSHORE PLATFORM,REMOVED,28.615226342,-91.6562137955,211111,CRUDE PETROLEUM AND NATURAL GAS EXTRACTION,BOEM/BSEE,5/3/2016 0:00:00,UNVERIFIED,6/20/2016 0:00:00,172,1,NOT AVAILABLE,"W & T OFFSHORE, INC.",THIRD PARTY,NONE,5/23/1998 0:00:00,5/28/2012 0:00:00,N,49,119,0,U,N,N,N,N,U,N,-999,218,807,EI,GULF OF MEXICO,4.77912349311153,1998-05-23,1998,0.3994627841839984
GOM00102,A,OFFSHORE PLATFORM,REMOVED,29.2659501107,-94.5244642178,211111,CRUDE PETROLEUM AND NATURAL GAS EXTRACTION,BOEM/BSEE,5/3/2016 0:00:00,UNVERIFIED,6/20/2016 0:00:00,173,1,NOT AVAILABLE,THE HOUSTON EXPLORATION CO.,THIRD PARTY,NONE,5/28/1998 0:00:00,4/2/2004 0:00:00,N,11,52,0,U,N,N,N,N,U,Y,-999,144,G17119,GA,GULF OF MEXICO,3.951243718581428,1998-05-28,1998,-0.08382956266162989
GOM00103,A,OFFSHORE PLATFORM,REMOVED,28.9875612912,-89.5566734925,211111,CRUDE PETROLEUM AND NATURAL GAS EXTRACTION,BOEM/BSEE,5/3/2016 0:00:00,UNVERIFIED,6/20/2016 0:00:00,174,1,NOT AVAILABLE,SENECA RESOURCES CORP.,THIRD PARTY,NONE,5/2/1999 0:00:00,4/24/2001 0:00:00,N,40,87,-999,U,N,N,U,N,U,Y,-999,78,G16478,WD,GULF OF MEXICO,4.465908118654584,1999-05-02,1999,-0.09092225859653347
GOM00104,2,OFFSHORE PLATFORM,REMOVED,29.5157808496,-92.7762580398,211111,CRUDE PETROLEUM AND NATURAL GAS EXTRACTION,BOEM/BSEE,5/3/2016 0:00:00,UNVERIFIED,6/20/2016 0:00:00,175,1,NOT AVAILABLE,STONE ENERGY CORP.,THIRD PARTY,NONE,11/8/1998 0:00:00,4/1/2007 0:00:00,N,8,41,0,U,N,N,N,N,U,N,-999,34,G17834,EC,GULF OF MEXICO,3.713572066704308,1998-11-08,1998,0.4085929204161749
GOM00105,7,OFFSHORE PLATFORM,IN SERVICE,29.1990015557,-91.5977563762,211111,CRUDE PETROLEUM AND NATURAL GAS EXTRACTION,BOEM/BSEE,5/3/2016 0:00:00,UNVERIFIED,6/20/2016 0:00:00,176,1,CHEVRON USA INC.,CHEVRON USA INC.,THIRD PARTY,NONE,3/15/1998 0:00:00,,N,16,24,0,U,N,N,N,N,U,N,-999,64,G01865,EI,GULF OF MEXICO,3.178053830347946,1998-03-15,1998,-0.31143599535460265
GOM00106,A,OFFSHORE PLATFORM,REMOVED,28.2470043341,-93.811116962,211111,CRUDE PETROLEUM AND NATURAL GAS EXTRACTION,BOEM/BSEE,5/3/2016 0:00:00,UNVERIFIED,6/20/2016 0:00:00,177,1,NOT AVAILABLE,NEWFIELD EXPLORATION CO.,THIRD PARTY,NONE,4/9/1998 0:00:00,10/20/2005 0:00:00,N,80,211,0,U,N,N,N,N,U,N,-999,A 304,G17209,HI,GULF OF MEXICO,5.351858133476067,1998-04-09,1998,0.7679614320418251
GOM00107,CAIS.#1,OFFSHORE PLATFORM,REMOVED,29.279598262,-91.632953798,211111,CRUDE PETROLEUM AND NATURAL GAS EXTRACTION,BOEM/BSEE,5/3/2016 0:00:00,UNVERIFIED,6/20/2016 0:00:00,178,1,NOT AVAILABLE,FOREST OIL CORP.,THIRD PARTY,NONE,5/5/1998 0:00:00,6/20/2012 0:00:00,N,16,15,0,U,N,N,N,N,U,N,-999,43,G17958,EI,GULF OF MEXICO,2.70805020110221,1998-05-05,1998,-0.6804296084883252
GOM00108,CAIS..#3,OFFSHORE PLATFORM,REMOVED,28.833506946,-93.1223075066,211111,CRUDE PETROLEUM AND NATURAL GAS EXTRACTION,BOEM/BSEE,5/3/2016 0:00:00,UNVERIFIED,6/20/2016 0:00:00,179,1,NOT AVAILABLE,"ENERGY RESOURCE TECHNOLOGY, INC.",THIRD PARTY,NONE,5/13/1998 0:00:00,3/30/2004 0:00:00,N,60,85,-999,U,N,N,U,N,U,Y,-999,277,G04761,WC,GULF OF MEXICO,4.442651256490317,1998-05-13,1998,0.564166272052498
GOM00109,CAIS.#34,OFFSHORE PLATFORM,IN SERVICE,28.9738690316,-91.4862538729,211111,CRUDE PETROLEUM AND NATURAL GAS EXTRACTION,BOEM/BSEE,5/3/2016 0:00:00,UNVERIFIED,6/20/2016 0:00:00,180,1,NOT AVAILABLE,FIELDWOOD ENERGY LLC,THIRD PARTY,BOTH,7/20/1998 0:00:00,,N,22,44,0,U,N,Y,N,N,U,N,-999,119,49,EI,GULF OF MEXICO,3.784189633918261,1998-07-20,1998,-0.03756227176333349
GOM00110,C  #4,OFFSHORE PLATFORM,REMOVED,29.3314501976,-92.4069984613,211111,CRUDE PETROLEUM AND NATURAL GAS EXTRACTION,BOEM/BSEE,5/3/2016 0:00:00,UNVERIFIED,6/20/2016 0:00:00,182,1,NOT AVAILABLE,NEXEN PETROLEUM USA INC.,THIRD PARTY,NONE,4/24/1998 0:00:00,5/2/2014 0:00:00,N,14,29,-999,U,N,N,U,N,U,N,-999,66,G04787,VR,GULF OF MEXICO,3.367295829986474,1998-04-24,1998,0.010095875562697199
GOM00111,A-HOOVER SPAR,OFFSHORE PLATFORM,IN SERVICE,26.9393627454,-94.6888975515,211111,CRUDE PETROLEUM AND NATURAL GAS EXTRACTION,BOEM/BSEE,5/3/2016 0:00:00,UNVERIFIED,6/20/2016 0:00:00,183,1,EXXON MOBIL CORP.; FREEPORT-MCMORAN EXPLORATION & PRODUCTION LLC,EXXON MOBIL CORP.,THIRD PARTY,BOTH,4/25/2000 0:00:00,,Y,137,4825,0,G,Y,Y,Y,Y,U,Y,60,25,G10380,AC,GULF OF MEXICO,8.481566013773087,2000-04-25,2000,1.688103246105353
GOM00112,I,OFFSHORE PLATFORM,IN SERVICE,28.9454747333,-90.366001272,211111,CRUDE PETROLEUM AND NATURAL GAS EXTRACTION,BOEM/BSEE,5/3/2016 0:00:00,UNVERIFIED,6/20/2016 0:00:00,186,1,CHEVRON USA INC.,CHEVRON USA INC.,THIRD PARTY,BOTH,5/5/1998 0:00:00,,N,7,53,0,U,N,Y,N,N,U,Y,-999,37,G02625,ST,GULF OF MEXICO,3.970291913552122,1998-05-05,1998,-0.26400075926805266
GOM00113,A,OFFSHORE PLATFORM,REMOVED,29.8534434639,-88.3959089989,211111,CRUDE PETROLEUM AND NATURAL GAS EXTRACTION,BOEM/BSEE,5/3/2016 0:00:00,UNVERIFIED,6/20/2016 0:00:00,189,1,NOT AVAILABLE,CHEVRON USA INC.,THIRD PARTY,NONE,3/30/1998 0:00:00,7/14/2007 0:00:00,N,90,113,0,U,N,N,U,N,U,Y,-999,114,G16536,VK,GULF OF MEXICO,4.727387818712341,1998-03-30,1998,1.3548510237145273
GOM00114,A,OFFSHORE PLATFORM,REMOVED,28.5270903161,-90.1446204287,211111,CRUDE PETROLEUM AND NATURAL GAS EXTRACTION,BOEM/BSEE,5/3/2016 0:00:00,UNVERIFIED,6/20/2016 0:00:00,191,1,NOT AVAILABLE,"EP ENERGY E&P CO., LP",THIRD PARTY,NONE,5/16/1998 0:00:00,4/30/2007 0:00:00,N,32,191,0,U,N,N,N,N,U,Y,-999,182,G24972,ST,GULF OF MEXICO,5.25227342804663,1998-05-16,1998,-0.044707161806689655
GOM00115,A,OFFSHORE PLATFORM,REMOVED,29.4306116236,-88.1169217847,211111,CRUDE PETROLEUM AND NATURAL GAS EXTRACTION,BOEM/BSEE,5/3/2016 0:00:00,UNVERIFIED,6/20/2016 0:00:00,194,1,NOT AVAILABLE,JX NIPPON OIL EXPLORATION (USA) LTD.,THIRD PARTY,NONE,8/14/1998 0:00:00,2/24/2011 0:00:00,N,72,175,-999,G,Y,N,Y,Y,U,Y,6,226,G16508,MP,GULF OF MEXICO,5.164785973923514,1998-08-14,1998,0.7290700502701801
GOM00116,C,OFFSHORE PLATFORM,IN SERVICE,28.7393584247,-91.2532876157,211111,CRUDE PETROLEUM AND NATURAL GAS EXTRACTION,BOEM/BSEE,5/3/2016 0:00:00,UNVERIFIED,6/20/2016 0:00:00,196,1,NOT AVAILABLE,"CENTURY EXPLORATION NEW ORLEANS, LLC",THIRD PARTY,BOTH,5/10/1998 0:00:00,,Y,28,51,0,B,Y,Y,N,Y,N,Y,2,150,419,SS,GULF OF MEXICO,3.931825632724326,1998-05-10,1998,-0.35231932067870275
GOM00117,B,OFFSHORE PLATFORM,REMOVED,28.2227151505,-93.1794326794,211111,CRUDE PETROLEUM AND NATURAL GAS EXTRACTION,BOEM/BSEE,5/3/2016 0:00:00,UNVERIFIED,6/20/2016 0:00:00,197,1,NOT AVAILABLE,APACHE CORP.,THIRD PARTY,NONE,6/30/1998 0:00:00,10/12/2014 0:00:00,N,99,203,0,U,N,N,N,N,U,Y,-999,575,G04844,WC,GULF OF MEXICO,5.313205979041787,1998-06-30,1998,0.6275021343452964
GOM00118,P,OFFSHORE PLATFORM,IN SERVICE,29.3432401187,-88.067119152,211111,CRUDE PETROLEUM AND NATURAL GAS EXTRACTION,BOEM/BSEE,5/3/2016 0:00:00,UNVERIFIED,6/20/2016 0:00:00,198,1,NOT AVAILABLE,"DESTIN PIPELINE CO., LLC",THIRD PARTY,UNKNOWN,9/1/1998 0:00:00,,Y,55,300,0,G,N,N,U,N,U,N,-999,260,NOT AVAILABLE,MP,GULF OF MEXICO,5.703782474656201,1998-09-01,1998,1.0184882179205133
GOM00119,CAIS.#1,OFFSHORE PLATFORM,REMOVED,29.0318441853,-91.5124350019,211111,CRUDE PETROLEUM AND NATURAL GAS EXTRACTION,BOEM/BSEE,5/3/2016 0:00:00,UNVERIFIED,6/20/2016 0:00:00,199,1,NOT AVAILABLE,APACHE CORP.,THIRD PARTY,NONE,8/1/1998 0:00:00,9/10/2013 0:00:00,N,20,32,0,U,N,N,N,N,U,N,-999,106,G17966,EI,GULF OF MEXICO,3.465735902799727,1998-08-01,1998,-0.26396440866614945
GOM00120,1,OFFSHORE PLATFORM,REMOVED,29.0167400701,-90.515728357,211111,CRUDE PETROLEUM AND NATURAL GAS EXTRACTION,BOEM/BSEE,5/3/2016 0:00:00,UNVERIFIED,6/20/2016 0:00:00,200,1,NOT AVAILABLE,STONE ENERGY CORP.,THIRD PARTY,NONE,3/31/1999 0:00:00,7/26/2012 0:00:00,N,3,30,0,U,N,N,U,N,U,N,-999,11,G13925,ST,GULF OF MEXICO,3.401197381662155,1999-03-31,1999,-0.6337090941621453
GOM00121,B(FMR CAIS.#3),OFFSHORE PLATFORM,REMOVED,28.9619179547,-92.8543395984,211111,CRUDE PETROLEUM AND NATURAL GAS EXTRACTION,BOEM/BSEE,5/3/2016 0:00:00,UNVERIFIED,6/20/2016 0:00:00,201,1,NOT AVAILABLE,MCMORAN OIL & GAS LLC,THIRD PARTY,NONE,5/5/1998 0:00:00,7/29/2009 0:00:00,N,55,78,0,U,N,N,N,N,U,Y,-999,151,G05372,EC,GULF OF MEXICO,4.356708826689592,1998-05-05,1998,0.6244984739510437
GOM00122,CAIS.#35,OFFSHORE PLATFORM,IN SERVICE,28.9923262836,-91.4776778438,211111,CRUDE PETROLEUM AND NATURAL GAS EXTRACTION,BOEM/BSEE,5/3/2016 0:00:00,UNVERIFIED,6/20/2016 0:00:00,202,1,NOT AVAILABLE,FIELDWOOD ENERGY LLC,THIRD PARTY,NONE,1/24/1998 0:00:00,,N,21,38,0,U,N,N,N,N,U,N,-999,119,49,EI,GULF OF MEXICO,3.637586159726386,1998-01-24,1998,-0.15775146912282478
GOM00123,BB(FMR CAIS.#1),OFFSHORE PLATFORM,IN SERVICE,30.1491878791,-88.145592508,211111,CRUDE PETROLEUM AND NATURAL GAS EXTRACTION,BOEM/BSEE,5/3/2016 0:00:00,UNVERIFIED,6/20/2016 0:00:00,206,1,NOT AVAILABLE,EXXON MOBIL CORP.,THIRD PARTY,NATURAL GAS,3/1/1984 0:00:00,,N,5,52,0,O,N,N,N,N,U,N,-999,867,G05066,MO,GULF OF MEXICO,3.951243718581428,1984-03-01,1984,0.9926282146226741
GOM00124,A,OFFSHORE PLATFORM,REMOVED,28.5963289549,-90.4801879712,211111,CRUDE PETROLEUM AND NATURAL GAS EXTRACTION,BOEM/BSEE,5/3/2016 0:00:00,UNVERIFIED,6/20/2016 0:00:00,208,1,NOT AVAILABLE,"ENERGY RESOURCE TECHNOLOGY, INC.",THIRD PARTY,NONE,5/9/1998 0:00:00,12/18/2008 0:00:00,N,35,96,-999,U,N,N,N,N,U,N,-999,146,G18041,ST,GULF OF MEXICO,4.564348191467836,1998-05-09,1998,-0.3649624937495517
GOM00125,JA,OFFSHORE PLATFORM,IN SERVICE,28.0569135307,-94.0231506638,211111,CRUDE PETROLEUM AND NATURAL GAS EXTRACTION,BOEM/BSEE,5/3/2016 0:00:00,UNVERIFIED,6/20/2016 0:00:00,209,1,"ENERGY RESOURCE TECHNOLOGY GOM, INC.",FIELDWOOD ENERGY LLC,THIRD PARTY,BOTH,7/11/1998 0:00:00,,N,96,235,0,U,N,N,N,N,U,Y,-999,A 545,G17199,HI,GULF OF MEXICO,5.459585514144159,1998-07-11,1998,0.6206066552376015
GOM00126,A,OFFSHORE PLATFORM,REMOVED,27.6062553011,-96.7503803985,211111,CRUDE PETROLEUM AND NATURAL GAS EXTRACTION,BOEM/BSEE,5/3/2016 0:00:00,UNVERIFIED,6/20/2016 0:00:00,213,1,NOT AVAILABLE,"VASTAR RESOURCES, INC.",THIRD PARTY,NONE,7/11/1998 0:00:00,10/21/2001 0:00:00,N,30,130,0,U,N,N,U,N,U,N,-999,788,G15704,MU,GULF OF MEXICO,4.867534450455582,1998-07-11,1998,-0.783772311685266
GOM00127,CAIS.#12(D),OFFSHORE PLATFORM,REMOVED,28.656173428,-90.9408621305,211111,CRUDE PETROLEUM AND NATURAL GAS EXTRACTION,BOEM/BSEE,5/3/2016 0:00:00,UNVERIFIED,6/20/2016 0:00:00,216,1,NOT AVAILABLE,EXPLORE ENTERPRISES OF LOUISIANA LLC,THIRD PARTY,NONE,6/24/1998 0:00:00,4/5/2005 0:00:00,N,27,56,-999,U,N,N,U,N,U,N,-999,167,818,SS,GULF OF MEXICO,4.02535169073515,1998-06-24,1998,-0.5446247071399029
GOM00128,1,OFFSHORE PLATFORM,REMOVED,29.0974227721,-89.7370302173,211111,CRUDE PETROLEUM AND NATURAL GAS EXTRACTION,BOEM/BSEE,5/3/2016 0:00:00,UNVERIFIED,6/20/2016 0:00:00,217,1,NOT AVAILABLE,FIELDWOOD ENERGY LLC,THIRD PARTY,NONE,7/8/1998 0:00:00,8/22/2014 0:00:00,N,13,85,0,U,N,N,U,N,U,N,-999,42,G16470,WD,GULF OF MEXICO,4.442651256490317,1998-07-08,1998,0.22363905427142505
GOM00129,9,OFFSHORE PLATFORM,IN SERVICE,28.9481610962,-90.7750554123,211111,CRUDE PETROLEUM AND NATURAL GAS EXTRACTION,BOEM/BSEE,5/3/2016 0:00:00,UNVERIFIED,6/20/2016 0:00:00,218,1,APACHE CORP.,FIELDWOOD ENERGY LLC,THIRD PARTY,NONE,1/19/1998 0:00:00,,N,5,35,0,U,N,N,N,N,N,Y,-999,68,G02917,SS,GULF OF MEXICO,3.555348061489414,1998-01-19,1998,-0.5109296402756884
GOM00130,10,OFFSHORE PLATFORM,IN SERVICE,28.9481613354,-90.7751116827,211111,CRUDE PETROLEUM AND NATURAL GAS EXTRACTION,BOEM/BSEE,5/3/2016 0:00:00,UNVERIFIED,6/20/2016 0:00:00,218,2,APACHE CORP.,FIELDWOOD ENERGY LLC,THIRD PARTY,NONE,7/30/2001 0:00:00,,N,5,35,0,U,N,N,N,N,N,Y,-999,68,G02917,SS,GULF OF MEXICO,3.555348061489414,2001-07-30,2001,-0.5109090813776023
GOM00131,29,OFFSHORE PLATFORM,REMOVED,28.943258419,-90.736990789,211111,CRUDE PETROLEUM AND NATURAL GAS EXTRACTION,BOEM/BSEE,5/3/2016 0:00:00,UNVERIFIED,6/20/2016 0:00:00,219,1,APACHE CORP.,APACHE CORP.,THIRD PARTY,NONE,11/29/1997 0:00:00,7/30/2011 0:00:00,N,10,35,0,U,N,N,U,N,U,N,-999,10,G02925,PL,GULF OF MEXICO,3.555348061489414,1997-11-29,1997,-0.5337786746640889
GOM00132,CAIS.#30,OFFSHORE PLATFORM,REMOVED,28.9238899728,-90.7306162026,211111,CRUDE PETROLEUM AND NATURAL GAS EXTRACTION,BOEM/BSEE,5/3/2016 0:00:00,UNVERIFIED,6/20/2016 0:00:00,220,1,NOT AVAILABLE,APACHE CORP.,THIRD PARTY,NONE,10/14/1997 0:00:00,7/13/2011 0:00:00,N,11,36,0,U,N,N,U,N,U,N,-999,11,71,PL,GULF OF MEXICO,3.58351893845611,1997-10-14,1997,-0.5441724973511546
GOM00133,CAIS.#2,OFFSHORE PLATFORM,REMOVED,29.0369818521,-91.5056103282,211111,CRUDE PETROLEUM AND NATURAL GAS EXTRACTION,BOEM/BSEE,5/3/2016 0:00:00,UNVERIFIED,6/20/2016 0:00:00,221,1,NOT AVAILABLE,APACHE CORP.,THIRD PARTY,NONE,7/11/1998 0:00:00,9/12/2013 0:00:00,N,19,30,0,U,N,N,N,N,U,N,-999,106,G17966,EI,GULF OF MEXICO,3.401197381662155,1998-07-11,1998,-0.3222060393324453
GOM00134,C,OFFSHORE PLATFORM,REMOVED,28.4716628349,-93.4741871307,211111,CRUDE PETROLEUM AND NATURAL GAS EXTRACTION,BOEM/BSEE,5/3/2016 0:00:00,UNVERIFIED,6/20/2016 0:00:00,222,1,"M21K, LLC; HILLCREST GOM, INC.; DYNAMIC OFFSHORE RESOURCES NS, LLC; OTHER","EP ENERGY MANAGEMENT, LLC",THIRD PARTY,NONE,10/13/1998 0:00:00,2/13/2001 0:00:00,N,98,151,-999,U,N,N,U,N,U,Y,-999,498,G03520,WC,GULF OF MEXICO,5.017279836814924,1998-10-13,1998,0.717118466431276
GOM00135,C,OFFSHORE PLATFORM,IN SERVICE,29.2116315149,-91.5952507314,211111,CRUDE PETROLEUM AND NATURAL GAS EXTRACTION,BOEM/BSEE,5/3/2016 0:00:00,UNVERIFIED,6/20/2016 0:00:00,228,1,NOT AVAILABLE,FIELDWOOD ENERGY LLC,THIRD PARTY,BOTH,10/5/1998 0:00:00,,Y,15,22,0,B,Y,N,Y,Y,U,Y,8,53,479,EI,GULF OF MEXICO,3.091042453358316,1998-10-05,1998,-0.3827733242967746
GOM00136,10,OFFSHORE PLATFORM,IN SERVICE,29.2116560347,-91.5953667741,211111,CRUDE PETROLEUM AND NATURAL GAS EXTRACTION,BOEM/BSEE,5/3/2016 0:00:00,UNVERIFIED,6/20/2016 0:00:00,228,2,NOT AVAILABLE,FIELDWOOD ENERGY LLC,THIRD PARTY,NONE,6/4/1997 0:00:00,,Y,15,22,0,B,Y,N,Y,Y,U,Y,8,53,479,EI,GULF OF MEXICO,3.091042453358316,1997-06-04,1997,-0.3827316937938825
GOM00137,2,OFFSHORE PLATFORM,REMOVED,28.9924957537,-91.1752782706,211111,CRUDE PETROLEUM AND NATURAL GAS EXTRACTION,BOEM/BSEE,5/3/2016 0:00:00,UNVERIFIED,6/20/2016 0:00:00,229,1,NOT AVAILABLE,"ENERGY RESOURCE TECHNOLOGY GOM, INC.",THIRD PARTY,NONE,7/1/1998 0:00:00,7/29/2010 0:00:00,N,16,18,0,U,N,N,N,N,U,N,-999,59,G11977,SS,GULF OF MEXICO,2.890371757896165,1998-07-01,1998,-0.974923864265119
GOM00138,B,OFFSHORE PLATFORM,REMOVED,29.3904566841,-92.9082359086,211111,CRUDE PETROLEUM AND NATURAL GAS EXTRACTION,BOEM/BSEE,5/3/2016 0:00:00,UNVERIFIED,6/20/2016 0:00:00,230,1,NOT AVAILABLE,UNION OIL CO. OF CALIFORNIA,THIRD PARTY,NONE,6/25/1998 0:00:00,3/26/2004 0:00:00,N,19,53,-999,U,N,N,U,N,U,Y,-999,62,G13574,EC,GULF OF MEXICO,3.970291913552122,1998-06-25,1998,0.5671629328013146
GOM00139,B,OFFSHORE PLATFORM,IN SERVICE,29.2753421643,-93.0018845945,211111,CRUDE PETROLEUM AND NATURAL GAS EXTRACTION,BOEM/BSEE,5/3/2016 0:00:00,UNVERIFIED,6/20/2016 0:00:00,231,1,NOT AVAILABLE,"MERIT ENERGY CO., LLC",THIRD PARTY,UNKNOWN,6/7/1998 0:00:00,,N,28,58,0,U,N,N,N,N,U,Y,-999,83,G08641,EC,GULF OF MEXICO,4.060443010546419,1998-06-07,1998,0.5675381973001778
GOM00140,C,OFFSHORE PLATFORM,IN SERVICE,29.3007457369,-91.6514390019,211111,CRUDE PETROLEUM AND NATURAL GAS EXTRACTION,BOEM/BSEE,5/3/2016 0:00:00,UNVERIFIED,6/20/2016 0:00:00,232,1,NOT AVAILABLE,"SOJITZ ENERGY VENTURE, INC.",THIRD PARTY,UNKNOWN,5/22/1998 0:00:00,,N,14,14,0,U,N,N,N,N,U,Y,-999,30,G09574,EI,GULF OF MEXICO,2.639057329615258,1998-05-22,1998,-0.7239489409526358
GOM00141,C-AUX,OFFSHORE PLATFORM,IN SERVICE,29.3007374072,-91.6514734827,211111,CRUDE PETROLEUM AND NATURAL GAS EXTRACTION,BOEM/BSEE,5/3/2016 0:00:00,UNVERIFIED,6/20/2016 0:00:00,232,2,NOT AVAILABLE,"SOJITZ ENERGY VENTURE, INC.",THIRD PARTY,UNKNOWN,1/31/2000 0:00:00,,N,14,14,0,U,N,N,N,N,U,Y,-999,30,G09574,EI,GULF OF MEXICO,2.639057329615258,2000-01-31,2000,-0.7239568148770958
GOM00142,E,OFFSHORE PLATFORM,REMOVED,29.2907185495,-93.2582104046,211111,CRUDE PETROLEUM AND NATURAL GAS EXTRACTION,BOEM/BSEE,5/3/2016 0:00:00,UNVERIFIED,6/20/2016 0:00:00,233,1,NOT AVAILABLE,"W & T OFFSHORE, INC.",THIRD PARTY,NONE,6/19/1998 0:00:00,4/4/2006 0:00:00,N,32,56,0,U,N,N,U,N,U,N,-999,197,G03264,WC,GULF OF MEXICO,4.02535169073515,1998-06-19,1998,0.48121254432005856
GOM00143,B,OFFSHORE PLATFORM,REMOVED,29.357594043,-87.9785891972,211111,CRUDE PETROLEUM AND NATURAL GAS EXTRACTION,BOEM/BSEE,5/3/2016 0:00:00,UNVERIFIED,6/20/2016 0:00:00,234,1,NOT AVAILABLE,"MARITECH RESOURCES, INC.",THIRD PARTY,NONE,12/10/1998 0:00:00,6/11/2012 0:00:00,N,59,319,-999,U,N,N,U,N,U,Y,-999,250,G15387,MP,GULF OF MEXICO,5.765191102784844,1998-12-10,1998,1.050561468861976
GOM00144,A-MARLIN TLP,OFFSHORE PLATFORM,IN SERVICE,29.1077880848,-87.9436174423,211111,CRUDE PETROLEUM AND NATURAL GAS EXTRACTION,BOEM/BSEE,5/3/2016 0:00:00,UNVERIFIED,6/20/2016 0:00:00,235,1,FREEPORT-MCMORAN EXPLORATION & PRODUCTION LLC,FREEPORT-MCMORAN OIL & GAS LLC,THIRD PARTY,BOTH,7/27/1999 0:00:00,,Y,64,3236,0,B,Y,Y,Y,Y,U,Y,80,915,G06894,VK,GULF OF MEXICO,8.082093278178382,1999-07-27,1999,2.6760456528267067
GOM00145,B,OFFSHORE PLATFORM,REMOVED,28.9267770911,-92.0647620994,211111,CRUDE PETROLEUM AND NATURAL GAS EXTRACTION,BOEM/BSEE,5/3/2016 0:00:00,UNVERIFIED,6/20/2016 0:00:00,236,1,NOT AVAILABLE,MCMORAN OIL & GAS LLC,THIRD PARTY,NONE,6/18/1998 0:00:00,9/29/2012 0:00:00,N,40,81,0,U,N,N,N,N,U,N,-999,17,G12886,SM,GULF OF MEXICO,4.394449154672439,1998-06-18,1998,0.5976851359130348
GOM00146,CAIS.#2,OFFSHORE PLATFORM,REMOVED,29.5356703978,-93.606684808,211111,CRUDE PETROLEUM AND NATURAL GAS EXTRACTION,BOEM/BSEE,5/3/2016 0:00:00,UNVERIFIED,6/20/2016 0:00:00,239,1,NOT AVAILABLE,ATP OIL & GAS CORP.,THIRD PARTY,NONE,6/3/1998 0:00:00,1/4/2003 0:00:00,N,15,40,-999,U,N,N,U,N,U,Y,-999,92,G13829,WC,GULF OF MEXICO,3.688879454113936,1998-06-03,1998,0.10629875108975817
GOM00147,B,OFFSHORE PLATFORM,IN SERVICE,29.0085191121,-90.5273945838,211111,CRUDE PETROLEUM AND NATURAL GAS EXTRACTION,BOEM/BSEE,5/3/2016 0:00:00,UNVERIFIED,6/20/2016 0:00:00,240,1,APACHE CORP.,TALOS ENERGY OFFSHORE LLC,THIRD PARTY,NONE,11/8/1998 0:00:00,,Y,4,32,0,G,Y,Y,Y,Y,U,Y,4,5,G12027,PL,GULF OF MEXICO,3.465735902799727,1998-11-08,1998,-0.5801136528870732
GOM00148,A,OFFSHORE PLATFORM,IN SERVICE,28.4311413585,-91.0449542299,211111,CRUDE PETROLEUM AND NATURAL GAS EXTRACTION,BOEM/BSEE,5/3/2016 0:00:00,UNVERIFIED,6/20/2016 0:00:00,241,1,NOT AVAILABLE,ANKOR ENERGY LLC,THIRD PARTY,BOTH,6/20/1998 0:00:00,,N,43,120,0,G,Y,Y,Y,N,U,Y,-999,242,832,SS,GULF OF MEXICO,4.787491742782046,1998-06-20,1998,-0.21846837867820224
GOM00149,G,OFFSHORE PLATFORM,IN SERVICE,28.6699616721,-91.0049174037,211111,CRUDE PETROLEUM AND NATURAL GAS EXTRACTION,BOEM/BSEE,5/3/2016 0:00:00,UNVERIFIED,6/20/2016 0:00:00,242,1,NOT AVAILABLE,FIELDWOOD ENERGY LLC,THIRD PARTY,NONE,9/6/1998 0:00:00,,N,26,51,0,U,N,N,N,N,U,Y,-999,169,820,SS,GULF OF MEXICO,3.931825632724326,1998-09-06,1998,-0.5823811176481968
GOM00150,TEMP.CAIS.#3,OFFSHORE PLATFORM,REMOVED,29.171772587,-89.773473424,211111,CRUDE PETROLEUM AND NATURAL GAS EXTRACTION,BOEM/BSEE,5/3/2016 0:00:00,UNVERIFIED,6/20/2016 0:00:00,243,1,NOT AVAILABLE,NEWFIELD EXPLORATION CO.,THIRD PARTY,NONE,6/7/1998 0:00:00,10/14/2004 0:00:00,N,12,56,-999,U,N,N,U,N,U,N,-999,17,G05668,WD,GULF OF MEXICO,4.02535169073515,1998-06-07,1998,-0.023479823153067514
GOM00151,A,OFFSHORE PLATFORM,IN SERVICE,29.1006775217,-89.8192637742,211111,CRUDE PETROLEUM AND NATURAL GAS EXTRACTION,BOEM/BSEE,5/3/2016 0:00:00,UNVERIFIED,6/20/2016 0:00:00,245,1,NOT AVAILABLE,"NORTHSTAR OFFSHORE GROUP, LLC",THIRD PARTY,UNKNOWN,6/10/1998 0:00:00,,N,15,82,0,U,N,N,Y,Y,U,Y,-999,39,G16469,WD,GULF OF MEXICO,4.406719247264253,1998-06-10,1998,0.2350705617421669
GOM00152,A-AUX,OFFSHORE PLATFORM,IN SERVICE,29.1006602428,-89.8194331289,211111,CRUDE PETROLEUM AND NATURAL GAS EXTRACTION,BOEM/BSEE,5/3/2016 0:00:00,UNVERIFIED,6/20/2016 0:00:00,245,2,NOT AVAILABLE,"NORTHSTAR OFFSHORE GROUP, LLC",THIRD PARTY,UNKNOWN,8/19/2000 0:00:00,,N,15,82,0,U,N,N,Y,Y,U,Y,-999,39,G16469,WD,GULF OF MEXICO,4.406719247264253,2000-08-19,2000,0.2351171014550788
GOM00153,CAIS.#1,OFFSHORE PLATFORM,REMOVED,29.0685430703,-92.2123413957,211111,CRUDE PETROLEUM AND NATURAL GAS EXTRACTION,BOEM/BSEE,5/3/2016 0:00:00,UNVERIFIED,6/20/2016 0:00:00,248,1,NOT AVAILABLE,MURPHY EXPLORATION & PRODUCTION CO.,THIRD PARTY,NONE,6/14/1998 0:00:00,1/12/2004 0:00:00,N,27,62,-999,U,N,N,U,N,U,N,-999,130,G16296,VR,GULF OF MEXICO,4.127134385045092,1998-06-14,1998,0.5187749970625459
GOM00154,A,OFFSHORE PLATFORM,IN SERVICE,29.3511628504,-93.54807364,211111,CRUDE PETROLEUM AND NATURAL GAS EXTRACTION,BOEM/BSEE,5/3/2016 0:00:00,UNVERIFIED,6/20/2016 0:00:00,249,1,NOT AVAILABLE,APACHE CORP.,THIRD PARTY,UNKNOWN,10/12/1998 0:00:00,,N,28,40,0,U,N,N,N,N,N,Y,0,291,G04397,WC,GULF OF MEXICO,3.688879454113936,1998-10-12,1998,0.08330970898464862
GOM00155,B,OFFSHORE PLATFORM,REMOVED,29.103932479,-94.4387727138,211111,CRUDE PETROLEUM AND NATURAL GAS EXTRACTION,BOEM/BSEE,5/3/2016 0:00:00,UNVERIFIED,6/20/2016 0:00:00,250,1,NOT AVAILABLE,"EOG RESOURCES, INC.",THIRD PARTY,NONE,7/22/1998 0:00:00,8/20/2006 0:00:00,N,24,50,0,U,N,N,N,N,U,Y,-999,207,G08151,HI,GULF OF MEXICO,3.912023005428146,1998-07-22,1998,-0.1079560683793166
GOM00156,A(ALLEGHENY SEA,OFFSHORE PLATFORM,IN SERVICE,27.6918391322,-90.2755944662,211111,CRUDE PETROLEUM AND NATURAL GAS EXTRACTION,BOEM/BSEE,5/3/2016 0:00:00,UNVERIFIED,6/20/2016 0:00:00,251,1,ENI PETROLEUM US LLC; NEWFIELD EXPLORATION GULF COAST LLC,ENI US OPERATING CO. INC.,THIRD PARTY,BOTH,8/19/1999 0:00:00,,Y,86,3294,0,G,Y,Y,Y,Y,N,Y,-999,254,G07049,GC,GULF OF MEXICO,8.099857910737585,1999-08-19,1999,0.4883875396088957
GOM00157,J,OFFSHORE PLATFORM,IN SERVICE,28.7830266865,-91.7440354962,211111,CRUDE PETROLEUM AND NATURAL GAS EXTRACTION,BOEM/BSEE,5/3/2016 0:00:00,UNVERIFIED,6/20/2016 0:00:00,252,1,NOT AVAILABLE,FIELDWOOD ENERGY LLC,THIRD PARTY,BOTH,8/23/1998 0:00:00,,N,42,87,0,U,N,Y,N,N,U,Y,-999,175,438,EI,GULF OF MEXICO,4.465908118654584,1998-08-23,1998,0.39964996900603644
GOM00158,A,OFFSHORE PLATFORM,REMOVED,28.1639980424,-91.8107353619,211111,CRUDE PETROLEUM AND NATURAL GAS EXTRACTION,BOEM/BSEE,5/3/2016 0:00:00,UNVERIFIED,6/20/2016 0:00:00,253,1,NOT AVAILABLE,MURPHY EXPLORATION & PRODUCTION CO.,THIRD PARTY,NONE,10/17/1998 0:00:00,6/18/2005 0:00:00,N,95,272,0,U,N,N,N,N,U,N,-999,335,G17996,EI,GULF OF MEXICO,5.605802066295998,1998-10-17,1998,0.3746882771144344
GOM00159,B,OFFSHORE PLATFORM,REMOVED,29.2785256213,-88.2576809633,211111,CRUDE PETROLEUM AND NATURAL GAS EXTRACTION,BOEM/BSEE,5/3/2016 0:00:00,UNVERIFIED,6/20/2016 0:00:00,254,1,NOT AVAILABLE,"DOMINION EXPLORATION & PRODUCTION, INC.",THIRD PARTY,NONE,11/9/1998 0:00:00,2/22/2006 0:00:00,Y,80,290,-999,G,Y,N,N,Y,U,Y,-999,279,G16514,MP,GULF OF MEXICO,5.66988092298052,1998-11-09,1998,0.9614195664747971
GOM00160,B,OFFSHORE PLATFORM,REMOVED,28.8921345811,-90.6183547782,211111,CRUDE PETROLEUM AND NATURAL GAS EXTRACTION,BOEM/BSEE,5/3/2016 0:00:00,UNVERIFIED,6/20/2016 0:00:00,255,1,NOT AVAILABLE,"EPL OIL & GAS, INC.",THIRD PARTY,NONE,11/8/1998 0:00:00,10/8/2009 0:00:00,N,13,50,0,U,N,N,U,N,U,Y,-999,18,G13934,PL,GULF OF MEXICO,3.912023005428146,1998-11-08,1998,-0.3206781619060526
GOM00161,1,OFFSHORE PLATFORM,REMOVED,29.8907111919,-88.4196398751,211111,CRUDE PETROLEUM AND NATURAL GAS EXTRACTION,BOEM/BSEE,5/3/2016 0:00:00,UNVERIFIED,6/20/2016 0:00:00,256,1,NOT AVAILABLE,CHEVRON USA INC.,THIRD PARTY,NONE,7/30/1998 0:00:00,7/31/2001 0:00:00,N,27,105,-999,U,N,N,U,N,U,N,-999,70,G16532,VK,GULF OF MEXICO,4.653960350157523,1998-07-30,1998,1.361032246885462
GOM00162,A,OFFSHORE PLATFORM,IN SERVICE,29.7459810615,-88.1582549096,211111,CRUDE PETROLEUM AND NATURAL GAS EXTRACTION,BOEM/BSEE,5/3/2016 0:00:00,UNVERIFIED,6/20/2016 0:00:00,257,1,CHEVRON USA INC.,CHEVRON USA INC.,THIRD PARTY,BOTH,7/5/1998 0:00:00,,N,32,120,-999,G,Y,N,Y,Y,Y,Y,-999,251,G10930,VK,GULF OF MEXICO,4.787491742782046,1998-07-05,1998,1.081582284285056
GOM00164,A,OFFSHORE PLATFORM,IN SERVICE,29.3323348674,-87.8778587821,211111,CRUDE PETROLEUM AND NATURAL GAS EXTRACTION,BOEM/BSEE,5/3/2016 0:00:00,UNVERIFIED,6/20/2016 0:00:00,258,1,NOT AVAILABLE,DAUPHIN ISLAND GATHERING PARTNERS,THIRD PARTY,UNKNOWN,11/18/1998 0:00:00,,Y,61,348,-999,G,Y,N,N,N,N,Y,6,256,NOT AVAILABLE,MP,GULF OF MEXICO,5.852202479774474,1998-11-18,1998,0.9964538356330879
GOM00165,A,OFFSHORE PLATFORM,REMOVED,29.1194918254,-92.3379524764,211111,CRUDE PETROLEUM AND NATURAL GAS EXTRACTION,BOEM/BSEE,5/3/2016 0:00:00,UNVERIFIED,6/20/2016 0:00:00,259,1,NOT AVAILABLE,"W & T OFFSHORE, INC.",THIRD PARTY,NONE,7/31/1998 0:00:00,7/19/2009 0:00:00,N,30,56,0,U,N,Y,Y,Y,U,Y,-999,115,G17896,VR,GULF OF MEXICO,4.02535169073515,1998-07-31,1998,0.4741430806644331
GOM00166,2,OFFSHORE PLATFORM,REMOVED,28.8902911211,-91.8854636367,211111,CRUDE PETROLEUM AND NATURAL GAS EXTRACTION,BOEM/BSEE,5/3/2016 0:00:00,UNVERIFIED,6/20/2016 0:00:00,260,1,NOT AVAILABLE,"PENNZENERGY EXPLORATION AND PRODUCTION, LLC",THIRD PARTY,NONE,7/22/1998 0:00:00,6/8/1999 0:00:00,N,48,79,-999,U,N,N,U,N,U,N,-999,23,778,SM,GULF OF MEXICO,4.369447852467021,1998-07-22,1998,0.4965686299591301
GOM00167,TEMP.CAIS.#20,OFFSHORE PLATFORM,REMOVED,29.681665282,-93.5994542068,211111,CRUDE PETROLEUM AND NATURAL GAS EXTRACTION,BOEM/BSEE,5/3/2016 0:00:00,UNVERIFIED,6/20/2016 0:00:00,261,1,NOT AVAILABLE,STONE ENERGY CORP.,THIRD PARTY,NONE,11/7/1998 0:00:00,4/26/2013 0:00:00,N,5,32,-999,U,N,N,U,N,U,N,-999,45,300,WC,GULF OF MEXICO,3.465735902799727,1998-11-07,1998,-0.10303186267169373
GOM00168,17,OFFSHORE PLATFORM,IN SERVICE,28.9869925281,-91.4649629944,211111,CRUDE PETROLEUM AND NATURAL GAS EXTRACTION,BOEM/BSEE,5/3/2016 0:00:00,UNVERIFIED,6/20/2016 0:00:00,263,1,NOT AVAILABLE,FIELDWOOD ENERGY LLC,THIRD PARTY,BOTH,10/7/1998 0:00:00,,N,21,36,0,U,N,Y,N,N,U,N,0,120,50,EI,GULF OF MEXICO,3.58351893845611,1998-10-07,1998,-0.22255402001928726
GOM00169,C,OFFSHORE PLATFORM,REMOVED,28.3799155488,-92.7213916302,211111,CRUDE PETROLEUM AND NATURAL GAS EXTRACTION,BOEM/BSEE,5/3/2016 0:00:00,UNVERIFIED,6/20/2016 0:00:00,264,1,NOT AVAILABLE,MCMORAN OIL & GAS LLC,THIRD PARTY,NONE,8/12/1998 0:00:00,6/17/2010 0:00:00,N,84,186,0,U,N,N,U,N,U,Y,-999,286,G02051,EC,GULF OF MEXICO,5.225746673713202,1998-08-12,1998,0.7118951355622993
GOM00170,A,OFFSHORE PLATFORM,IN SERVICE,28.0577010013,-93.3522231442,211111,CRUDE PETROLEUM AND NATURAL GAS EXTRACTION,BOEM/BSEE,5/3/2016 0:00:00,UNVERIFIED,6/20/2016 0:00:00,265,1,NOT AVAILABLE,"W & T OFFSHORE, INC.",THIRD PARTY,UNKNOWN,9/16/1998 0:00:00,,Y,113,300,0,G,Y,N,Y,N,U,Y,8,616,G23558,WC,GULF OF MEXICO,5.703782474656201,1998-09-16,1998,0.7748590410251026
GOM00171,B,OFFSHORE PLATFORM,IN SERVICE,28.2631371999,-91.8904486859,211111,CRUDE PETROLEUM AND NATURAL GAS EXTRACTION,BOEM/BSEE,5/3/2016 0:00:00,UNVERIFIED,6/20/2016 0:00:00,266,1,"FIELDWOOD ENERGY LLC; MCMORAN OIL & GAS LLC; GIL RESOURCES, INC.",MCMORAN OIL & GAS LLC,THIRD PARTY,NONE,8/6/1998 0:00:00,,N,77,230,0,U,N,N,N,N,U,Y,-999,141,G02885,SM,GULF OF MEXICO,5.438079308923196,1998-08-06,1998,0.45472863125735596
GOM00172,D,OFFSHORE PLATFORM,REMOVED,28.144530991,-94.0096877603,211111,CRUDE PETROLEUM AND NATURAL GAS EXTRACTION,BOEM/BSEE,5/3/2016 0:00:00,UNVERIFIED,6/20/2016 0:00:00,269,1,NOT AVAILABLE,"EP ENERGY MANAGEMENT, LLC",THIRD PARTY,NONE,11/28/1998 0:00:00,5/21/2004 0:00:00,N,80,222,0,U,Y,N,U,N,U,Y,8,A 519,G08184,HI,GULF OF MEXICO,5.402677381872279,1998-11-28,1998,0.6868792406393984
GOM00173,A,OFFSHORE PLATFORM,REMOVED,28.8236524108,-89.9673169994,211111,CRUDE PETROLEUM AND NATURAL GAS EXTRACTION,BOEM/BSEE,5/3/2016 0:00:00,UNVERIFIED,6/20/2016 0:00:00,272,1,NOT AVAILABLE,WALTER OIL & GAS CORP.,THIRD PARTY,NONE,8/1/1998 0:00:00,1/9/2003 0:00:00,N,25,137,-999,U,N,N,N,N,U,Y,-999,65,G08730,GI,GULF OF MEXICO,4.919980925828125,1998-08-01,1998,0.22502439069935765
GOM00174,C,OFFSHORE PLATFORM,REMOVED,28.0528866505,-93.1310332054,211111,CRUDE PETROLEUM AND NATURAL GAS EXTRACTION,BOEM/BSEE,5/3/2016 0:00:00,UNVERIFIED,6/20/2016 0:00:00,274,1,NOT AVAILABLE,OFFSHORE ENERGY II LLC,THIRD PARTY,NONE,9/25/1998 0:00:00,8/12/2007 0:00:00,N,118,316,0,U,N,N,U,N,U,Y,-999,620,G02234,WC,GULF OF MEXICO,5.755742213586912,1998-09-25,1998,0.7687688925034157
GOM00175,CAIS.#2,OFFSHORE PLATFORM,REMOVED,30.0733588239,-87.9423047721,211111,CRUDE PETROLEUM AND NATURAL GAS EXTRACTION,BOEM/BSEE,5/3/2016 0:00:00,UNVERIFIED,6/20/2016 0:00:00,275,1,NOT AVAILABLE,UNION OIL CO. OF CALIFORNIA,THIRD PARTY,NONE,8/26/1998 0:00:00,10/7/2008 0:00:00,N,8,50,-999,U,N,N,U,N,U,N,-999,915,G05752,MO,GULF OF MEXICO,3.912023005428146,1998-08-26,1998,0.7320574480981672
GOM00176,A,OFFSHORE PLATFORM,IN SERVICE,29.2856525382,-88.1794897023,211111,CRUDE PETROLEUM AND NATURAL GAS EXTRACTION,BOEM/BSEE,5/3/2016 0:00:00,UNVERIFIED,6/20/2016 0:00:00,276,1,"APACHE CORP.; M21K, LLC","ENVEN ENERGY VENTURES, LLC",THIRD PARTY,BOTH,1/3/1999 0:00:00,,Y,50,307,0,G,Y,Y,Y,Y,U,Y,20,281,G10910,MP,GULF OF MEXICO,5.726847747587197,1999-01-03,1999,0.9793639382018391
GOM00177,CJ,OFFSHORE PLATFORM,REMOVED,28.9639843371,-92.5108498704,211111,CRUDE PETROLEUM AND NATURAL GAS EXTRACTION,BOEM/BSEE,5/3/2016 0:00:00,UNVERIFIED,6/20/2016 0:00:00,278,1,NOT AVAILABLE,MCMORAN OIL & GAS LLC,THIRD PARTY,NONE,11/30/1999 0:00:00,8/16/2008 0:00:00,N,45,89,-999,U,N,N,N,N,U,Y,-999,159,G03128,VR,GULF OF MEXICO,4.48863636973214,1999-11-30,1999,0.7661508762969245
GOM00178,A,OFFSHORE PLATFORM,IN SERVICE,29.2284369228,-92.3855077797,211111,CRUDE PETROLEUM AND NATURAL GAS EXTRACTION,BOEM/BSEE,5/3/2016 0:00:00,UNVERIFIED,6/20/2016 0:00:00,279,1,NOT AVAILABLE,TALOS ENERGY OFFSHORE LLC,THIRD PARTY,UNKNOWN,1/1/1998 0:00:00,,N,21,31,-999,U,N,N,Y,N,U,Y,-999,87,G15169,VR,GULF OF MEXICO,3.433987204485146,1998-01-01,1998,-0.011158836367104907
GOM00179,A,OFFSHORE PLATFORM,REMOVED,28.4277411693,-91.5432664094,211111,CRUDE PETROLEUM AND NATURAL GAS EXTRACTION,BOEM/BSEE,5/3/2016 0:00:00,UNVERIFIED,6/20/2016 0:00:00,283,1,NOT AVAILABLE,APACHE CORP.,THIRD PARTY,NONE,12/12/1998 0:00:00,8/29/2004 0:00:00,N,100,180,0,U,N,N,N,N,U,Y,-999,274,G07738,EI,GULF OF MEXICO,5.19295685089021,1998-12-12,1998,0.40840297851566554
GOM00180,A,OFFSHORE PLATFORM,REMOVED,29.287678434,-93.2594007858,211111,CRUDE PETROLEUM AND NATURAL GAS EXTRACTION,BOEM/BSEE,5/3/2016 0:00:00,UNVERIFIED,6/20/2016 0:00:00,285,1,NOT AVAILABLE,"ENERGY RESOURCE TECHNOLOGY, INC.",THIRD PARTY,NONE,11/8/1998 0:00:00,12/3/2002 0:00:00,N,38,57,-999,U,N,N,N,N,U,Y,-999,204,G15066,WC,GULF OF MEXICO,4.04305126783455,1998-11-08,1998,0.4970020879905741
GOM00181,CAIS.#3,OFFSHORE PLATFORM,REMOVED,30.07286097,-87.8464941753,211111,CRUDE PETROLEUM AND NATURAL GAS EXTRACTION,BOEM/BSEE,5/3/2016 0:00:00,UNVERIFIED,6/20/2016 0:00:00,286,1,UNION OIL CO. OF CALIFORNIA,UNION OIL CO. OF CALIFORNIA,THIRD PARTY,NONE,11/11/1998 0:00:00,10/4/2011 0:00:00,N,8,55,-999,U,N,N,U,N,U,N,-999,917,G05754,MO,GULF OF MEXICO,4.007333185232471,1998-11-11,1998,0.7803400661016324
GOM00182,C,OFFSHORE PLATFORM,IN SERVICE,29.2890524705,-88.2117996953,211111,CRUDE PETROLEUM AND NATURAL GAS EXTRACTION,BOEM/BSEE,5/3/2016 0:00:00,UNVERIFIED,6/20/2016 0:00:00,289,1,"ENVEN ENERGY VENTURES, LLC; MOBIL OIL EXPLORATION & PRODUCING SOUTHEAST INC.","ENVEN ENERGY VENTURES, LLC",THIRD PARTY,BOTH,11/26/1998 0:00:00,,N,48,302,-999,U,N,Y,U,N,U,Y,-999,280,G16515,MP,GULF OF MEXICO,5.71042701737487,1998-11-26,1998,0.9950603117648749
GOM00183,A,OFFSHORE PLATFORM,IN SERVICE,28.1977873574,-90.3448153275,211111,CRUDE PETROLEUM AND NATURAL GAS EXTRACTION,BOEM/BSEE,5/3/2016 0:00:00,UNVERIFIED,6/20/2016 0:00:00,290,1,APACHE CORP.,FIELDWOOD ENERGY LLC,THIRD PARTY,UNKNOWN,11/25/1998 0:00:00,,N,58,394,0,G,N,N,N,N,U,Y,9,291,G16455,ST,GULF OF MEXICO,5.976350909297934,1998-11-25,1998,-0.0484269773435253
GOM00184,A,OFFSHORE PLATFORM,REMOVED,28.3955259794,-90.6904222042,211111,CRUDE PETROLEUM AND NATURAL GAS EXTRACTION,BOEM/BSEE,5/3/2016 0:00:00,UNVERIFIED,6/20/2016 0:00:00,292,1,NOT AVAILABLE,"ARENA OFFSHORE, LP",THIRD PARTY,NONE,11/4/1998 0:00:00,10/21/2013 0:00:00,N,44,144,0,U,N,N,N,Y,U,Y,-999,217,G13937,ST,GULF OF MEXICO,4.969813299576001,1998-11-04,1998,-0.3138963282007152
GOM00185,C,OFFSHORE PLATFORM,REMOVED,28.5035213822,-90.2777669053,211111,CRUDE PETROLEUM AND NATURAL GAS EXTRACTION,BOEM/BSEE,5/3/2016 0:00:00,UNVERIFIED,6/20/2016 0:00:00,293,1,NOT AVAILABLE,JX NIPPON OIL EXPLORATION (USA) LTD.,THIRD PARTY,NONE,11/10/1998 0:00:00,12/15/2011 0:00:00,N,35,162,0,U,N,N,U,N,U,Y,-999,186,G15323,ST,GULF OF MEXICO,5.087596335232384,1998-11-10,1998,-0.18321075442548107
GOM00186,A,OFFSHORE PLATFORM,REMOVED,29.6799659874,-93.3407049045,211111,CRUDE PETROLEUM AND NATURAL GAS EXTRACTION,BOEM/BSEE,5/3/2016 0:00:00,UNVERIFIED,6/20/2016 0:00:00,294,1,NOT AVAILABLE,"APACHE SHELF, INC.",THIRD PARTY,NONE,12/19/1998 0:00:00,11/25/2014 0:00:00,N,5,31,0,U,N,N,N,Y,U,Y,-999,39,G13825,WC,GULF OF MEXICO,3.433987204485146,1998-12-19,1998,-0.016582687223564374
GOM00187,CAIS.#36,OFFSHORE PLATFORM,IN SERVICE,29.0064087574,-91.489137765,211111,CRUDE PETROLEUM AND NATURAL GAS EXTRACTION,BOEM/BSEE,5/3/2016 0:00:00,UNVERIFIED,6/20/2016 0:00:00,295,1,NOT AVAILABLE,FIELDWOOD ENERGY LLC,THIRD PARTY,NONE,5/2/1999 0:00:00,,N,20,32,0,U,N,N,N,N,U,N,-999,119,49,EI,GULF OF MEXICO,3.465735902799727,1999-05-02,1999,-0.3060626869868859
GOM00188,CAIS.#15,OFFSHORE PLATFORM,REMOVED,29.2687977915,-91.8099754615,211111,CRUDE PETROLEUM AND NATURAL GAS EXTRACTION,BOEM/BSEE,5/3/2016 0:00:00,UNVERIFIED,6/20/2016 0:00:00,296,1,NOT AVAILABLE,SENECA RESOURCES CORP.,THIRD PARTY,NONE,2/1/1999 0:00:00,5/9/2010 0:00:00,N,12,23,0,U,N,N,N,N,U,Y,-999,47,317,EI,GULF OF MEXICO,3.13549421592915,1999-02-01,1999,-0.25744087032354157
GOM00189,CAIS.#1,OFFSHORE PLATFORM,REMOVED,30.1636475564,-87.8259031555,211111,CRUDE PETROLEUM AND NATURAL GAS EXTRACTION,BOEM/BSEE,5/3/2016 0:00:00,UNVERIFIED,6/20/2016 0:00:00,298,1,NOT AVAILABLE,"SPN RESOURCES, LLC",THIRD PARTY,NONE,12/8/1998 0:00:00,3/25/2005 0:00:00,N,5,40,-999,U,N,N,U,N,U,N,-999,830,G06845,MO,GULF OF MEXICO,3.688879454113936,1998-12-08,1998,0.6175050701333529
GOM00190,CAIS.#1,OFFSHORE PLATFORM,IN SERVICE,30.1047323884,-87.75762518,211111,CRUDE PETROLEUM AND NATURAL GAS EXTRACTION,BOEM/BSEE,5/3/2016 0:00:00,UNVERIFIED,6/20/2016 0:00:00,299,1,NOT AVAILABLE,"SPN RESOURCES, LLC",THIRD PARTY,UNKNOWN,11/24/1998 0:00:00,,N,8,58,-999,U,N,N,N,N,N,N,-999,881,G06390,PE,GULF OF MEXICO,4.060443010546419,1998-11-24,1998,0.8490469865156003
GOM00191,1,OFFSHORE PLATFORM,REMOVED,29.3598359832,-93.8908009639,211111,CRUDE PETROLEUM AND NATURAL GAS EXTRACTION,BOEM/BSEE,5/3/2016 0:00:00,UNVERIFIED,6/20/2016 0:00:00,302,1,NOT AVAILABLE,APACHE CORP.,THIRD PARTY,NONE,10/9/1998 0:00:00,6/7/2004 0:00:00,N,24,42,0,U,N,N,U,N,U,N,-999,86,G14155,HI,GULF OF MEXICO,3.737669618283368,1998-10-09,1998,0.004761200326035109
GOM00192,A,OFFSHORE PLATFORM,REMOVED,28.7308315933,-91.6164824273,211111,CRUDE PETROLEUM AND NATURAL GAS EXTRACTION,BOEM/BSEE,5/3/2016 0:00:00,UNVERIFIED,6/20/2016 0:00:00,304,1,NOT AVAILABLE,"PRIME NATURAL RESOURCES, INC.",THIRD PARTY,NONE,11/2/1998 0:00:00,1/26/2000 0:00:00,N,48,90,0,U,N,N,N,N,U,Y,-999,196,802,EI,GULF OF MEXICO,4.499809670330265,1998-11-02,1998,0.31360700480855996
GOM00193,C,OFFSHORE PLATFORM,REMOVED,28.2901703779,-92.5413880408,211111,CRUDE PETROLEUM AND NATURAL GAS EXTRACTION,BOEM/BSEE,5/3/2016 0:00:00,UNVERIFIED,6/20/2016 0:00:00,305,1,NOT AVAILABLE,"EPL OIL & GAS, INC.",THIRD PARTY,NONE,11/25/1998 0:00:00,6/17/2009 0:00:00,N,87,207,0,U,N,N,U,N,U,Y,-999,320,G02087,VR,GULF OF MEXICO,5.332718793265369,1998-11-25,1998,0.6221178463496218
GOM00194,A,OFFSHORE PLATFORM,REMOVED,28.8128436156,-93.064447167,211111,CRUDE PETROLEUM AND NATURAL GAS EXTRACTION,BOEM/BSEE,5/3/2016 0:00:00,UNVERIFIED,6/20/2016 0:00:00,306,1,NOT AVAILABLE,UNION OIL CO. OF CALIFORNIA,THIRD PARTY,NONE,3/1/1999 0:00:00,7/16/2004 0:00:00,N,126,90,0,U,N,N,U,N,U,Y,-999,278,G19711,WC,GULF OF MEXICO,4.499809670330265,1999-03-01,1999,0.6022743632393173
GOM00195,D,OFFSHORE PLATFORM,REMOVED,28.9418150788,-90.4987566544,211111,CRUDE PETROLEUM AND NATURAL GAS EXTRACTION,BOEM/BSEE,5/3/2016 0:00:00,UNVERIFIED,6/20/2016 0:00:00,308,1,"TALOS ENERGY OFFSHORE LLC; TENKAY RESOURCES, INC.",STONE ENERGY CORP.,THIRD PARTY,NONE,10/9/1998 0:00:00,3/29/2012 0:00:00,N,8,47,0,U,N,N,U,N,U,N,-999,34,G04842,ST,GULF OF MEXICO,3.850147601710058,1998-10-09,1998,-0.3347684889389817
GOM00196,CAIS.#1,OFFSHORE PLATFORM,REMOVED,29.6527268125,-88.8267266,211111,CRUDE PETROLEUM AND NATURAL GAS EXTRACTION,BOEM/BSEE,5/3/2016 0:00:00,UNVERIFIED,6/20/2016 0:00:00,309,1,NOT AVAILABLE,APACHE CORP.,THIRD PARTY,NONE,10/25/1998 0:00:00,9/13/2006 0:00:00,N,31,42,-999,U,N,N,U,N,U,N,-999,91,G19854,MP,GULF OF MEXICO,3.737669618283368,1998-10-25,1998,0.18809699123325707
GOM00197,A,OFFSHORE PLATFORM,REMOVED,30.0775059716,-87.8293449898,211111,CRUDE PETROLEUM AND NATURAL GAS EXTRACTION,BOEM/BSEE,5/3/2016 0:00:00,UNVERIFIED,6/20/2016 0:00:00,311,1,UNION OIL CO. OF CALIFORNIA,UNION OIL CO. OF CALIFORNIA,THIRD PARTY,NONE,2/20/1999 0:00:00,3/25/2011 0:00:00,N,8,60,-999,G,Y,N,U,N,U,Y,-999,918,G12114,MO,GULF OF MEXICO,4.0943445622221,1999-02-20,1999,0.8675813957530734
GOM00198,C,OFFSHORE PLATFORM,REMOVED,29.683738633,-93.5881584074,211111,CRUDE PETROLEUM AND NATURAL GAS EXTRACTION,BOEM/BSEE,5/3/2016 0:00:00,UNVERIFIED,6/20/2016 0:00:00,312,1,NOT AVAILABLE,STONE ENERGY CORP.,THIRD PARTY,NONE,11/6/1998 0:00:00,5/21/2013 0:00:00,N,5,32,-999,U,N,N,U,N,U,N,-999,45,300,WC,GULF OF MEXICO,3.465735902799727,1998-11-06,1998,-0.09758208586112893
GOM00199,CAIS.#4,OFFSHORE PLATFORM,IN SERVICE,29.0511140028,-94.6601906282,211111,CRUDE PETROLEUM AND NATURAL GAS EXTRACTION,BOEM/BSEE,5/3/2016 0:00:00,UNVERIFIED,6/20/2016 0:00:00,313,1,NOT AVAILABLE,WALTER OIL & GAS CORP.,THIRD PARTY,UNKNOWN,9/22/1998 0:00:00,,N,17,60,0,U,N,N,U,N,U,Y,-999,225,G15742,GA,GULF OF MEXICO,4.0943445622221,1998-09-22,1998,-0.033575962547605975
GOM00200,B,OFFSHORE PLATFORM,IN SERVICE,28.8040246129,-91.9748288669,211111,CRUDE PETROLEUM AND NATURAL GAS EXTRACTION,BOEM/BSEE,5/3/2016 0:00:00,UNVERIFIED,6/20/2016 0:00:00,317,1,"FIELDWOOD ENERGY OFFSHORE LLC; NORTHSTAR OFFSHORE GROUP, LLC",FIELDWOOD ENERGY OFFSHORE LLC,THIRD PARTY,BOTH,11/9/1998 0:00:00,,N,46,93,0,U,N,Y,N,N,U,Y,-999,39,G16320,SM,GULF OF MEXICO,4.532599493153256,1998-11-09,1998,0.5467417511555226
GOM00201,A,OFFSHORE PLATFORM,IN SERVICE,28.8131539105,-91.9759485265,211111,CRUDE PETROLEUM AND NATURAL GAS EXTRACTION,BOEM/BSEE,5/3/2016 0:00:00,UNVERIFIED,6/20/2016 0:00:00,319,1,"FIELDWOOD ENERGY OFFSHORE LLC; NORTHSTAR OFFSHORE GROUP, LLC",FIELDWOOD ENERGY OFFSHORE LLC,THIRD PARTY,BOTH,10/19/1998 0:00:00,,Y,46,93,0,B,Y,Y,Y,Y,U,Y,8,39,G16320,SM,GULF OF MEXICO,4.532599493153256,1998-10-19,1998,0.5607016411323542
GOM00202,D,OFFSHORE PLATFORM,REMOVED,27.9777342523,-94.0585667767,211111,CRUDE PETROLEUM AND NATURAL GAS EXTRACTION,BOEM/BSEE,5/3/2016 0:00:00,UNVERIFIED,6/20/2016 0:00:00,320,1,NOT AVAILABLE,"DOMINION EXPLORATION & PRODUCTION, INC.",THIRD PARTY,NONE,2/7/1999 0:00:00,9/24/2001 0:00:00,N,116,275,0,U,N,N,U,N,U,N,-999,A 570,G02390,HI,GULF OF MEXICO,5.616771097666572,1999-02-07,1999,0.6629010953061538
GOM00203,AH,OFFSHORE PLATFORM,IN SERVICE,29.160105177,-89.5163842828,211111,CRUDE PETROLEUM AND NATURAL GAS EXTRACTION,BOEM/BSEE,5/3/2016 0:00:00,UNVERIFIED,6/20/2016 0:00:00,346,1,"EPL OIL & GAS, INC.; FIELDWOOD ENERGY OFFSHORE LLC; DYNAMIC OFFSHORE RESOURCES NS, LLC","ENERGY XXI GOM, LLC",THIRD PARTY,NONE,11/1/1998 0:00:00,,N,10,32,0,U,N,N,N,N,U,N,-999,27,G04473,WD,GULF OF MEXICO,3.465735902799727,1998-11-01,1998,-0.7340745948476499
GOM00204,A,OFFSHORE PLATFORM,REMOVED,29.2628861311,-93.9181420435,211111,CRUDE PETROLEUM AND NATURAL GAS EXTRACTION,BOEM/BSEE,5/3/2016 0:00:00,UNVERIFIED,6/20/2016 0:00:00,350,1,NOT AVAILABLE,"PRIME NATURAL RESOURCES, INC.",THIRD PARTY,NONE,2/22/1999 0:00:00,10/23/2001 0:00:00,N,30,51,0,U,N,N,U,N,U,N,-999,131,G14863,HI,GULF OF MEXICO,3.931825632724326,1999-02-22,1999,0.16375149534280808
GOM00205,1,OFFSHORE PLATFORM,REMOVED,29.0576747996,-91.5894565658,211111,CRUDE PETROLEUM AND NATURAL GAS EXTRACTION,BOEM/BSEE,5/3/2016 0:00:00,UNVERIFIED,6/20/2016 0:00:00,351,1,NOT AVAILABLE,FIELDWOOD ENERGY OFFSHORE LLC,THIRD PARTY,NONE,4/15/2001 0:00:00,3/9/2011 0:00:00,N,22,22,0,U,N,N,N,N,U,N,-999,97,G17964,EI,GULF OF MEXICO,3.091042453358316,2001-04-15,2001,-0.5885906213350403
GOM00206,C,OFFSHORE PLATFORM,REMOVED,28.2416394538,-91.9057568459,211111,CRUDE PETROLEUM AND NATURAL GAS EXTRACTION,BOEM/BSEE,5/3/2016 0:00:00,UNVERIFIED,6/20/2016 0:00:00,352,1,NOT AVAILABLE,MCMORAN OIL & GAS LLC,THIRD PARTY,NONE,5/23/1999 0:00:00,10/19/2014 0:00:00,N,79,234,0,U,N,N,N,N,U,N,-999,144,G02886,SM,GULF OF MEXICO,5.455321115357702,1999-05-23,1999,0.4332647141325019
GOM00207,1,OFFSHORE PLATFORM,REMOVED,28.9054628403,-90.2613397987,211111,CRUDE PETROLEUM AND NATURAL GAS EXTRACTION,BOEM/BSEE,5/3/2016 0:00:00,UNVERIFIED,6/20/2016 0:00:00,353,1,NOT AVAILABLE,EL PASO PRODUCTION GOM INC.,THIRD PARTY,NONE,11/24/1998 0:00:00,8/21/2002 0:00:00,N,12,68,-999,U,N,N,Y,N,U,Y,-999,46,G16415,ST,GULF OF MEXICO,4.219507705176107,1998-11-24,1998,-0.1442777499777952
GOM00208,2,OFFSHORE PLATFORM,IN SERVICE,29.0060436187,-91.5419343212,211111,CRUDE PETROLEUM AND NATURAL GAS EXTRACTION,BOEM/BSEE,5/3/2016 0:00:00,UNVERIFIED,6/20/2016 0:00:00,354,1,NOT AVAILABLE,"BLACK ELK ENERGY OFFSHORE OPERATIONS, LLC",THIRD PARTY,NONE,2/1/1999 0:00:00,,N,22,38,0,U,N,N,N,N,U,Y,-999,118,G15242,EI,GULF OF MEXICO,3.637586159726386,1999-02-01,1999,-0.12473632118807698
GOM00209,CAIS.#1,OFFSHORE PLATFORM,REMOVED,30.1606522255,-87.8406346216,211111,CRUDE PETROLEUM AND NATURAL GAS EXTRACTION,BOEM/BSEE,5/3/2016 0:00:00,UNVERIFIED,6/20/2016 0:00:00,355,1,NOT AVAILABLE,CHEVRON USA INC.,THIRD PARTY,NONE,1/1/1999 0:00:00,6/7/2002 0:00:00,N,22,42,-999,U,N,N,U,N,U,N,-999,829,NOT AVAILABLE,MO,GULF OF MEXICO,3.737669618283368,1999-01-01,1999,0.6677183055982336
GOM00210,1,OFFSHORE PLATFORM,REMOVED,28.2330345838,-96.2528850291,211111,CRUDE PETROLEUM AND NATURAL GAS EXTRACTION,BOEM/BSEE,5/3/2016 0:00:00,UNVERIFIED,6/20/2016 0:00:00,356,1,NOT AVAILABLE,"MARINER ENERGY, INC.",THIRD PARTY,NONE,6/1/1999 0:00:00,8/8/2011 0:00:00,N,13,79,0,U,N,N,U,N,U,Y,-999,565,G18885,MI,GULF OF MEXICO,4.369447852467021,1999-06-01,1999,-0.7123920092773357
GOM00211,2,OFFSHORE PLATFORM,REMOVED,28.7640599331,-90.2193073633,211111,CRUDE PETROLEUM AND NATURAL GAS EXTRACTION,BOEM/BSEE,5/3/2016 0:00:00,UNVERIFIED,6/20/2016 0:00:00,360,1,NOT AVAILABLE,EL PASO PRODUCTION GOM INC.,THIRD PARTY,NONE,11/12/1998 0:00:00,9/13/2003 0:00:00,N,18,102,0,U,N,N,U,N,U,N,-999,86,G14520,ST,GULF OF MEXICO,4.624972813284271,1998-11-12,1998,-0.06563509306949111
GOM00212,A,OFFSHORE PLATFORM,IN SERVICE,28.0575352876,-92.2154053208,211111,CRUDE PETROLEUM AND NATURAL GAS EXTRACTION,BOEM/BSEE,5/3/2016 0:00:00,UNVERIFIED,6/20/2016 0:00:00,361,1,"ANKOR E&P HOLDINGS CORP.; GS E&R AMERICA OFFSHORE, LLC; SCL RESOURCES, LLC",ANKOR ENERGY LLC,THIRD PARTY,BOTH,3/2/1999 0:00:00,,Y,99,331,0,B,Y,Y,Y,Y,U,Y,-999,379,G13606,VR,GULF OF MEXICO,5.802118375377063,1999-03-02,1999,0.5172480498298455
GOM00213,5,OFFSHORE PLATFORM,REMOVED,29.0370872112,-94.6588038995,211111,CRUDE PETROLEUM AND NATURAL GAS EXTRACTION,BOEM/BSEE,5/3/2016 0:00:00,UNVERIFIED,6/20/2016 0:00:00,362,1,NOT AVAILABLE,WALTER OIL & GAS CORP.,THIRD PARTY,NONE,11/28/1998 0:00:00,10/6/2010 0:00:00,N,22,60,0,U,N,N,U,N,U,Y,-999,239,G09032,GA,GULF OF MEXICO,4.0943445622221,1998-11-28,1998,-0.03607219084220947
GOM00214,A,OFFSHORE PLATFORM,REMOVED,28.7698176012,-93.1537999476,211111,CRUDE PETROLEUM AND NATURAL GAS EXTRACTION,BOEM/BSEE,5/3/2016 0:00:00,UNVERIFIED,6/20/2016 0:00:00,363,1,NOT AVAILABLE,JX NIPPON OIL EXPLORATION (USA) LTD.,THIRD PARTY,NONE,12/20/1998 0:00:00,5/28/2002 0:00:00,N,125,91,-999,U,N,N,Y,N,U,Y,-999,407,G15089,WC,GULF OF MEXICO,4.51085950651685,1998-12-20,1998,0.5634147727602663
GOM00215,A,OFFSHORE PLATFORM,REMOVED,29.250203805,-93.8596325167,211111,CRUDE PETROLEUM AND NATURAL GAS EXTRACTION,BOEM/BSEE,5/3/2016 0:00:00,UNVERIFIED,6/20/2016 0:00:00,364,1,NOT AVAILABLE,"PRIME NATURAL RESOURCES, INC.",THIRD PARTY,NONE,2/22/1999 0:00:00,9/20/2002 0:00:00,N,30,43,0,U,N,N,U,N,U,N,-999,130,G14883,HI,GULF OF MEXICO,3.761200115693562,1999-02-22,1999,0.011003806537253524
GOM00216,1,OFFSHORE PLATFORM,REMOVED,29.2315994413,-91.755015725,211111,CRUDE PETROLEUM AND NATURAL GAS EXTRACTION,BOEM/BSEE,5/3/2016 0:00:00,UNVERIFIED,6/20/2016 0:00:00,367,1,NOT AVAILABLE,XTO OFFSHORE INC.,THIRD PARTY,NONE,7/1/1999 0:00:00,4/27/2007 0:00:00,N,10,23,0,U,N,N,N,N,U,N,-999,50,G17960,EI,GULF OF MEXICO,3.13549421592915,1999-07-01,1999,-0.30224601417786046
GOM00217,B,OFFSHORE PLATFORM,IN SERVICE,29.0126574649,-89.6098357226,211111,CRUDE PETROLEUM AND NATURAL GAS EXTRACTION,BOEM/BSEE,5/3/2016 0:00:00,UNVERIFIED,6/20/2016 0:00:00,368,1,NOT AVAILABLE,TANA EXPLORATION CO. LLC,THIRD PARTY,NONE,11/28/1998 0:00:00,,N,12,105,0,U,N,N,N,N,N,Y,-999,61,G03186,WD,GULF OF MEXICO,4.653960350157523,1998-11-28,1998,0.1840081862184535
GOM00218,A,OFFSHORE PLATFORM,REMOVED,29.1000301888,-92.269774848,211111,CRUDE PETROLEUM AND NATURAL GAS EXTRACTION,BOEM/BSEE,5/3/2016 0:00:00,UNVERIFIED,6/20/2016 0:00:00,371,1,NOT AVAILABLE,"W & T OFFSHORE, INC.",THIRD PARTY,NONE,12/4/1998 0:00:00,8/15/2009 0:00:00,N,30,56,-999,U,N,N,U,N,U,Y,-999,114,G17895,VR,GULF OF MEXICO,4.02535169073515,1998-12-04,1998,0.4535063263761714
GOM00219,CAIS.#2,OFFSHORE PLATFORM,REMOVED,29.1000576882,-92.269775098,211111,CRUDE PETROLEUM AND NATURAL GAS EXTRACTION,BOEM/BSEE,5/3/2016 0:00:00,UNVERIFIED,6/20/2016 0:00:00,371,2,NOT AVAILABLE,"W & T OFFSHORE, INC.",THIRD PARTY,NONE,12/4/1998 0:00:00,8/15/2009 0:00:00,N,30,56,-999,U,N,N,U,N,U,Y,-999,114,G17895,VR,GULF OF MEXICO,4.02535169073515,1998-12-04,1998,0.4535366166906698
GOM00220,CAIS.#2,OFFSHORE PLATFORM,REMOVED,29.4005083032,-93.3872587741,211111,CRUDE PETROLEUM AND NATURAL GAS EXTRACTION,BOEM/BSEE,5/3/2016 0:00:00,UNVERIFIED,6/20/2016 0:00:00,372,1,"DESTIN RESOURCES LLC; RESERVES MANAGEMENT, L.C.","LINDER OIL CO., A PARTNERSHIP",THIRD PARTY,NONE,2/11/1999 0:00:00,5/28/2013 0:00:00,N,24,44,0,U,N,N,U,N,U,N,-999,168,G05283,WC,GULF OF MEXICO,3.784189633918261,1999-02-11,1999,0.25048865387864927
GOM00221,A,OFFSHORE PLATFORM,REMOVED,28.9841862429,-92.904199718,211111,CRUDE PETROLEUM AND NATURAL GAS EXTRACTION,BOEM/BSEE,5/3/2016 0:00:00,UNVERIFIED,6/20/2016 0:00:00,373,1,NOT AVAILABLE,DEVON LOUISIANA CORP.,THIRD PARTY,NONE,1/17/1999 0:00:00,10/26/2003 0:00:00,N,136,82,0,U,N,N,U,N,U,Y,-999,152,G17849,EC,GULF OF MEXICO,4.406719247264253,1999-01-17,1999,0.6933358784325252
GOM00222,D,OFFSHORE PLATFORM,REMOVED,28.5696254837,-91.7633576139,211111,CRUDE PETROLEUM AND NATURAL GAS EXTRACTION,BOEM/BSEE,5/3/2016 0:00:00,UNVERIFIED,6/20/2016 0:00:00,374,1,NOT AVAILABLE,STONE ENERGY CORP.,THIRD PARTY,NONE,1/19/1999 0:00:00,9/12/2013 0:00:00,N,55,144,0,U,N,N,N,N,U,Y,-999,243,G02899,EI,GULF OF MEXICO,4.969813299576001,1999-01-19,1999,0.5404579788574866
GOM00223,D-AUX,OFFSHORE PLATFORM,REMOVED,28.5696877637,-91.7636506525,211111,CRUDE PETROLEUM AND NATURAL GAS EXTRACTION,BOEM/BSEE,5/3/2016 0:00:00,UNVERIFIED,6/20/2016 0:00:00,374,2,NOT AVAILABLE,STONE ENERGY CORP.,THIRD PARTY,NONE,5/25/2001 0:00:00,11/4/2012 0:00:00,N,55,144,0,U,N,N,N,N,U,Y,-999,243,G02899,EI,GULF OF MEXICO,4.969813299576001,2001-05-25,2001,0.5406633459311907
GOM00224,C,OFFSHORE PLATFORM,IN SERVICE,28.2081124963,-93.9530102722,211111,CRUDE PETROLEUM AND NATURAL GAS EXTRACTION,BOEM/BSEE,5/3/2016 0:00:00,UNVERIFIED,6/20/2016 0:00:00,375,1,"ROOSTER OIL & GAS, LLC","ROOSTER PETROLEUM, LLC",THIRD PARTY,NONE,1/16/1999 0:00:00,,N,89,142,0,U,N,N,N,N,U,Y,-999,A 494,G03244,HI,GULF OF MEXICO,4.955827057601261,1999-01-16,1999,0.32422655900246067
GOM00225,E-FACILITY #6,OFFSHORE PLATFORM,IN SERVICE,30.1637755303,-88.1852813684,211111,CRUDE PETROLEUM AND NATURAL GAS EXTRACTION,BOEM/BSEE,5/3/2016 0:00:00,UNVERIFIED,6/20/2016 0:00:00,382,1,"MOBIL OIL EXPLORATION & PRODUCING SOUTHEAST INC.; CHEVRON USA INC.; W & T OFFSHORE, INC.; EXXON MOBIL CORP.",MOBIL OIL EXPLORATION & PRODUCING SOUTHEAST INC.,THIRD PARTY,BOTH,3/30/1999 0:00:00,,N,5,52,0,U,N,N,N,N,U,N,-999,822,G05056,MO,GULF OF MEXICO,3.951243718581428,1999-03-30,1999,1.032465983039093
GOM00226,1,OFFSHORE PLATFORM,REMOVED,28.6218509485,-90.7880992349,211111,CRUDE PETROLEUM AND NATURAL GAS EXTRACTION,BOEM/BSEE,5/3/2016 0:00:00,UNVERIFIED,6/20/2016 0:00:00,383,1,NOT AVAILABLE,APACHE CORP.,THIRD PARTY,NONE,7/12/2000 0:00:00,1/2/2007 0:00:00,N,96,59,0,U,N,N,N,N,U,Y,-999,187,G18013,SS,GULF OF MEXICO,4.07753744390572,2000-07-12,2000,-0.6353483215476734
GOM00227,A,OFFSHORE PLATFORM,REMOVED,28.8731728582,-90.3743910803,211111,CRUDE PETROLEUM AND NATURAL GAS EXTRACTION,BOEM/BSEE,5/3/2016 0:00:00,UNVERIFIED,6/20/2016 0:00:00,387,1,NOT AVAILABLE,ATP OIL & GAS CORP.,THIRD PARTY,NONE,1/7/1999 0:00:00,5/21/2011 0:00:00,N,100,66,0,U,N,N,Y,N,U,Y,-999,48,G14518,ST,GULF OF MEXICO,4.189654742026425,1999-01-07,1999,-0.18801229243862316
GOM00228,A,OFFSHORE PLATFORM,REMOVED,28.4325770211,-90.5853693475,211111,CRUDE PETROLEUM AND NATURAL GAS EXTRACTION,BOEM/BSEE,5/3/2016 0:00:00,UNVERIFIED,6/20/2016 0:00:00,390,1,NOT AVAILABLE,EL PASO PRODUCTION CO.,THIRD PARTY,NONE,1/28/1999 0:00:00,12/12/2003 0:00:00,N,52,137,-999,U,N,N,U,N,U,Y,-999,212,G14538,ST,GULF OF MEXICO,4.919980925828125,1999-01-28,1999,-0.33624753253784245
GOM00229,2,OFFSHORE PLATFORM,REMOVED,29.1721364753,-93.9696412202,211111,CRUDE PETROLEUM AND NATURAL GAS EXTRACTION,BOEM/BSEE,5/3/2016 0:00:00,UNVERIFIED,6/20/2016 0:00:00,391,1,NOT AVAILABLE,BP AMERICA PRODUCTION CO.,THIRD PARTY,NONE,4/29/1999 0:00:00,7/12/2004 0:00:00,N,120,55,0,U,N,N,U,N,U,Y,-999,A   1,G15780,HI,GULF OF MEXICO,4.007333185232471,1999-04-29,1999,0.19044354033006794
GOM00230,D,OFFSHORE PLATFORM,REMOVED,29.4019693665,-88.0710756631,211111,CRUDE PETROLEUM AND NATURAL GAS EXTRACTION,BOEM/BSEE,5/3/2016 0:00:00,UNVERIFIED,6/20/2016 0:00:00,393,1,NOT AVAILABLE,"MILLENNIUM OFFSHORE GROUP, INC.",THIRD PARTY,NONE,9/9/1999 0:00:00,8/18/2007 0:00:00,N,54,227,-999,U,N,N,U,Y,U,Y,-999,225,G14581,MP,GULF OF MEXICO,5.424950017481403,1999-09-09,1999,0.8878276227632496
GOM00231,A,OFFSHORE PLATFORM,REMOVED,29.0256307919,-94.4571993536,211111,CRUDE PETROLEUM AND NATURAL GAS EXTRACTION,BOEM/BSEE,5/3/2016 0:00:00,UNVERIFIED,6/20/2016 0:00:00,394,1,NOT AVAILABLE,MARINER GULF OF MEXICO LLC,THIRD PARTY,NONE,2/7/1999 0:00:00,6/21/2003 0:00:00,N,25,60,0,U,N,N,N,N,U,N,-999,235,G18941,HI,GULF OF MEXICO,4.0943445622221,1999-02-07,1999,0.0446408256749562
GOM00232,A,OFFSHORE PLATFORM,REMOVED,29.3727390841,-93.9933115403,211111,CRUDE PETROLEUM AND NATURAL GAS EXTRACTION,BOEM/BSEE,5/3/2016 0:00:00,UNVERIFIED,6/20/2016 0:00:00,395,1,NOT AVAILABLE,"DYNAMIC OFFSHORE RESOURCES NS, LLC",THIRD PARTY,NONE,2/18/1999 0:00:00,10/15/2009 0:00:00,N,20,35,0,U,N,N,U,N,U,Y,-999,88,G15773,HI,GULF OF MEXICO,3.555348061489414,1999-02-18,1999,-0.2189372400612486
GOM00233,A,OFFSHORE PLATFORM,REMOVED,29.6247064823,-88.5729790684,211111,CRUDE PETROLEUM AND NATURAL GAS EXTRACTION,BOEM/BSEE,5/3/2016 0:00:00,UNVERIFIED,6/20/2016 0:00:00,396,1,NOT AVAILABLE,"MARITECH RESOURCES, INC.",THIRD PARTY,NONE,6/13/1999 0:00:00,4/25/2011 0:00:00,N,44,95,0,U,N,N,N,Y,U,Y,6,162,G13968,MP,GULF OF MEXICO,4.553876891600541,1999-06-13,1999,0.8240806925566373
GOM00234,E,OFFSHORE PLATFORM,IN SERVICE,29.4074080728,-93.2436378458,211111,CRUDE PETROLEUM AND NATURAL GAS EXTRACTION,BOEM/BSEE,5/3/2016 0:00:00,UNVERIFIED,6/20/2016 0:00:00,397,1,NOT AVAILABLE,"APACHE SHELF, INC.",THIRD PARTY,UNKNOWN,2/13/1999 0:00:00,,N,25,47,0,U,Y,N,N,Y,U,Y,-999,172,G01998,WC,GULF OF MEXICO,3.850147601710058,1999-02-13,1999,0.3648670931339333
GOM00235,#6,OFFSHORE PLATFORM,REMOVED,29.4317472273,-93.4208248421,211111,CRUDE PETROLEUM AND NATURAL GAS EXTRACTION,BOEM/BSEE,5/3/2016 0:00:00,UNVERIFIED,6/20/2016 0:00:00,398,1,NOT AVAILABLE,"EPL OIL & GAS, INC.",THIRD PARTY,NONE,6/1/1999 0:00:00,10/17/2004 0:00:00,N,23,40,-999,U,N,N,U,N,U,Y,-999,149,253,WC,GULF OF MEXICO,3.688879454113936,1999-06-01,1999,0.15443205252109315
GOM00236,CAIS.#7,OFFSHORE PLATFORM,REMOVED,29.4457917192,-93.4197282069,211111,CRUDE PETROLEUM AND NATURAL GAS EXTRACTION,BOEM/BSEE,5/3/2016 0:00:00,UNVERIFIED,6/20/2016 0:00:00,399,1,NOT AVAILABLE,"EPL OIL & GAS, INC.",THIRD PARTY,NONE,3/17/1999 0:00:00,4/7/1999 0:00:00,N,23,40,-999,U,N,N,U,N,U,N,-999,149,253,WC,GULF OF MEXICO,3.688879454113936,1999-03-17,1999,0.1592162469439753
GOM00237,36,OFFSHORE PLATFORM,REMOVED,29.1579454703,-89.5849724678,211111,CRUDE PETROLEUM AND NATURAL GAS EXTRACTION,BOEM/BSEE,5/3/2016 0:00:00,UNVERIFIED,6/20/2016 0:00:00,406,1,NOT AVAILABLE,CHEVRON USA INC.,THIRD PARTY,NONE,2/22/1999 0:00:00,4/28/2000 0:00:00,N,7,33,-999,U,N,N,U,N,U,N,-999,29,385,WD,GULF OF MEXICO,3.49650756146648,1999-02-22,1999,-0.6725460205488147
GOM00238,A,OFFSHORE PLATFORM,IN SERVICE,29.2693062501,-88.1900864494,211111,CRUDE PETROLEUM AND NATURAL GAS EXTRACTION,BOEM/BSEE,5/3/2016 0:00:00,UNVERIFIED,6/20/2016 0:00:00,407,1,"W & T OFFSHORE, INC.","W & T OFFSHORE, INC.",THIRD PARTY,BOTH,8/2/1999 0:00:00,,N,49,322,0,D,Y,N,N,N,N,Y,-999,734,G13672,VK,GULF OF MEXICO,5.774551545544409,1999-08-02,1999,0.9936088069548079
GOM00239,A,OFFSHORE PLATFORM,IN SERVICE,29.2696346419,-88.2375219572,211111,CRUDE PETROLEUM AND NATURAL GAS EXTRACTION,BOEM/BSEE,5/3/2016 0:00:00,UNVERIFIED,6/20/2016 0:00:00,408,1,"W & T OFFSHORE, INC.","W & T OFFSHORE, INC.",THIRD PARTY,BOTH,8/15/1999 0:00:00,,Y,46,300,0,B,Y,Y,Y,Y,U,Y,24,283,G13662,MP,GULF OF MEXICO,5.703782474656201,1999-08-15,1999,0.9584551198194831
GOM00240,A,OFFSHORE PLATFORM,REMOVED,29.2825145591,-93.9872452797,211111,CRUDE PETROLEUM AND NATURAL GAS EXTRACTION,BOEM/BSEE,5/3/2016 0:00:00,UNVERIFIED,6/20/2016 0:00:00,409,1,NOT AVAILABLE,"SPN RESOURCES, LLC",THIRD PARTY,NONE,6/22/1999 0:00:00,10/7/2007 0:00:00,N,25,51,0,U,N,N,U,N,U,Y,-999,133,G18938,HI,GULF OF MEXICO,3.931825632724326,1999-06-22,1999,0.14197722922483536
GOM00241,A,OFFSHORE PLATFORM,IN SERVICE,28.7511632092,-89.7154643375,211111,CRUDE PETROLEUM AND NATURAL GAS EXTRACTION,BOEM/BSEE,5/3/2016 0:00:00,UNVERIFIED,6/20/2016 0:00:00,410,1,APACHE CORP.,FIELDWOOD ENERGY LLC,THIRD PARTY,BOTH,7/22/1999 0:00:00,,Y,27,269,0,G,Y,Y,N,Y,U,Y,10,122,G13645,WD,GULF OF MEXICO,5.594711379601839,1999-07-22,1999,0.576426333717726
GOM00242,C,OFFSHORE PLATFORM,REMOVED,29.4486547116,-88.0965661359,211111,CRUDE PETROLEUM AND NATURAL GAS EXTRACTION,BOEM/BSEE,5/3/2016 0:00:00,UNVERIFIED,6/20/2016 0:00:00,411,1,NOT AVAILABLE,"MILLENNIUM OFFSHORE GROUP, INC.",THIRD PARTY,NONE,4/12/1999 0:00:00,8/25/2005 0:00:00,N,51,169,0,U,N,N,U,N,U,Y,-999,216,G13971,MP,GULF OF MEXICO,5.129898714923073,1999-04-12,1999,0.7233571113557247
GOM00243,B,OFFSHORE PLATFORM,REMOVED,28.8984497925,-91.7664365418,211111,CRUDE PETROLEUM AND NATURAL GAS EXTRACTION,BOEM/BSEE,5/3/2016 0:00:00,UNVERIFIED,6/20/2016 0:00:00,413,1,NOT AVAILABLE,"EOG RESOURCES, INC.",THIRD PARTY,NONE,7/12/1999 0:00:00,8/2/2011 0:00:00,N,33,68,0,U,N,N,N,N,U,N,-999,135,G14467,EI,GULF OF MEXICO,4.219507705176107,1999-07-12,1999,0.33813925696409175
GOM00244,A,OFFSHORE PLATFORM,IN SERVICE,28.3790640107,-96.0845462242,211111,CRUDE PETROLEUM AND NATURAL GAS EXTRACTION,BOEM/BSEE,5/3/2016 0:00:00,UNVERIFIED,6/20/2016 0:00:00,417,1,APACHE CORP.,FIELDWOOD ENERGY LLC,THIRD PARTY,BOTH,4/8/1999 0:00:00,,N,10,69,0,U,N,N,N,N,U,Y,-999,518,G05169,MI,GULF OF MEXICO,4.23410650459726,1999-04-08,1999,-0.7188656056726517
GOM00245,A,OFFSHORE PLATFORM,IN SERVICE,28.6058481833,-91.6570000168,211111,CRUDE PETROLEUM AND NATURAL GAS EXTRACTION,BOEM/BSEE,5/3/2016 0:00:00,UNVERIFIED,6/20/2016 0:00:00,419,1,NOT AVAILABLE,"ARENA OFFSHORE, LP",THIRD PARTY,NONE,4/30/1999 0:00:00,,N,49,131,0,U,N,N,N,N,U,Y,-999,227,809,EI,GULF OF MEXICO,4.875197323201151,1999-04-30,1999,0.47862607014812575
GOM00246,A-BRUTUS TLP,OFFSHORE PLATFORM,IN SERVICE,27.7955036357,-90.6476130444,211111,CRUDE PETROLEUM AND NATURAL GAS EXTRACTION,BOEM/BSEE,5/3/2016 0:00:00,UNVERIFIED,6/20/2016 0:00:00,420,1,SHELL OFFSHORE INC.,SHELL OFFSHORE INC.,THIRD PARTY,BOTH,6/20/2001 0:00:00,,Y,125,2900,1,G,Y,Y,Y,Y,U,Y,143,158,G07995,GC,GULF OF MEXICO,7.972466015974566,2001-06-20,2001,1.0201186066433703
GOM00247,A,OFFSHORE PLATFORM,REMOVED,28.1253538911,-93.060892627,211111,CRUDE PETROLEUM AND NATURAL GAS EXTRACTION,BOEM/BSEE,5/3/2016 0:00:00,UNVERIFIED,6/20/2016 0:00:00,421,1,NOT AVAILABLE,"NOBLE ENERGY, INC.",THIRD PARTY,NONE,5/17/1999 0:00:00,6/3/2008 0:00:00,N,98,273,0,U,N,N,U,N,U,Y,-999,600,G12807,WC,GULF OF MEXICO,5.60947179518496,1999-05-17,1999,0.735154622583992
GOM00248,C,OFFSHORE PLATFORM,REMOVED,30.0950028282,-88.5074181325,211111,CRUDE PETROLEUM AND NATURAL GAS EXTRACTION,BOEM/BSEE,5/3/2016 0:00:00,UNVERIFIED,6/20/2016 0:00:00,432,1,UNION OIL CO. OF CALIFORNIA,UNION OIL CO. OF CALIFORNIA,THIRD PARTY,NONE,5/25/2000 0:00:00,7/26/2009 0:00:00,N,7,61,-999,U,N,N,U,N,U,N,-999,904,G05749,MO,GULF OF MEXICO,4.110873864173311,2000-05-25,2000,1.2007218539061002
GOM00249,A,OFFSHORE PLATFORM,REMOVED,28.3851444944,-91.2118878125,211111,CRUDE PETROLEUM AND NATURAL GAS EXTRACTION,BOEM/BSEE,5/3/2016 0:00:00,UNVERIFIED,6/20/2016 0:00:00,435,1,NOT AVAILABLE,"ENERGY RESOURCE TECHNOLOGY GOM, INC.",THIRD PARTY,NONE,5/28/1999 0:00:00,3/13/2014 0:00:00,N,91,178,0,U,N,Y,U,N,U,Y,-999,250,G27132,SS,GULF OF MEXICO,5.181783550292085,1999-05-28,1999,0.15629324353408336
GOM00250,#7,OFFSHORE PLATFORM,REMOVED,29.4645051521,-92.6419407414,211111,CRUDE PETROLEUM AND NATURAL GAS EXTRACTION,BOEM/BSEE,5/3/2016 0:00:00,UNVERIFIED,6/20/2016 0:00:00,452,1,NOT AVAILABLE,"MARITECH RESOURCES, INC.",THIRD PARTY,NONE,12/25/1999 0:00:00,11/11/2004 0:00:00,N,8,42,0,U,N,N,U,N,U,N,-999,38,G02562,EC,GULF OF MEXICO,3.737669618283368,1999-12-25,1999,0.4363407788920508
GOM00251,A,OFFSHORE PLATFORM,REMOVED,28.8683126287,-91.3147169565,211111,CRUDE PETROLEUM AND NATURAL GAS EXTRACTION,BOEM/BSEE,5/3/2016 0:00:00,UNVERIFIED,6/20/2016 0:00:00,455,1,NOT AVAILABLE,STONE ENERGY CORP.,THIRD PARTY,NONE,7/21/1999 0:00:00,9/8/2007 0:00:00,N,25,39,0,U,N,N,U,N,U,Y,-999,103,G18007,SS,GULF OF MEXICO,3.663561646129646,1999-07-21,1999,-0.37136312657255166
GOM00252,A,OFFSHORE PLATFORM,REMOVED,28.2118913939,-92.2359125408,211111,CRUDE PETROLEUM AND NATURAL GAS EXTRACTION,BOEM/BSEE,5/3/2016 0:00:00,UNVERIFIED,6/20/2016 0:00:00,456,1,NOT AVAILABLE,MURPHY EXPLORATION & PRODUCTION CO. - USA,THIRD PARTY,NONE,5/21/1999 0:00:00,9/16/2007 0:00:00,N,81,233,-999,U,N,N,U,N,U,Y,-999,335,G14418,VR,GULF OF MEXICO,5.4510384535657,1999-05-21,1999,0.49550528941799055
GOM00253,4,OFFSHORE PLATFORM,IN SERVICE,29.0033913045,-90.5121238482,211111,CRUDE PETROLEUM AND NATURAL GAS EXTRACTION,BOEM/BSEE,5/3/2016 0:00:00,UNVERIFIED,6/20/2016 0:00:00,457,1,APACHE CORP.,TALOS ENERGY OFFSHORE LLC,THIRD PARTY,BOTH,11/1/1999 0:00:00,,N,4,25,0,U,N,N,N,N,U,N,-999,5,G12027,PL,GULF OF MEXICO,3.218875824868201,1999-11-01,1999,-0.842494652540017
GOM00254,C,OFFSHORE PLATFORM,IN SERVICE,28.7977576375,-91.9798523311,211111,CRUDE PETROLEUM AND NATURAL GAS EXTRACTION,BOEM/BSEE,5/3/2016 0:00:00,UNVERIFIED,6/20/2016 0:00:00,458,1,"FIELDWOOD ENERGY OFFSHORE LLC; NORTHSTAR OFFSHORE GROUP, LLC",FIELDWOOD ENERGY OFFSHORE LLC,THIRD PARTY,BOTH,6/1/1999 0:00:00,,N,47,97,0,U,N,Y,N,N,U,Y,-999,39,G16320,SM,GULF OF MEXICO,4.574710978503383,1999-06-01,1999,0.5802659537771362
GOM00255,D,OFFSHORE PLATFORM,IN SERVICE,28.7065385916,-92.2694483028,211111,CRUDE PETROLEUM AND NATURAL GAS EXTRACTION,BOEM/BSEE,5/3/2016 0:00:00,UNVERIFIED,6/20/2016 0:00:00,459,1,CHEVRON USA INC.,CHEVRON USA INC.,THIRD PARTY,BOTH,7/1/1999 0:00:00,,N,56,128,-999,G,Y,Y,U,N,U,Y,-999,214,G02076,VR,GULF OF MEXICO,4.852030263919617,1999-07-01,1999,0.7695021390710943
GOM00256,B,OFFSHORE PLATFORM,IN SERVICE,27.9719759032,-93.5179768348,211111,CRUDE PETROLEUM AND NATURAL GAS EXTRACTION,BOEM/BSEE,5/3/2016 0:00:00,UNVERIFIED,6/20/2016 0:00:00,463,1,"M21K, LLC","ENERGY XXI GOM, LLC",THIRD PARTY,BOTH,8/28/1999 0:00:00,,Y,118,342,0,G,Y,Y,Y,Y,U,Y,10,A 368,G02433,HI,GULF OF MEXICO,5.834810737062605,1999-08-28,1999,0.7912784453297599
GOM00257,1,OFFSHORE PLATFORM,REMOVED,28.8764528134,-90.594394359,211111,CRUDE PETROLEUM AND NATURAL GAS EXTRACTION,BOEM/BSEE,5/3/2016 0:00:00,UNVERIFIED,6/20/2016 0:00:00,465,1,NOT AVAILABLE,"ROSETTA RESOURCES OFFSHORE, LLC",THIRD PARTY,NONE,7/2/1999 0:00:00,4/22/2011 0:00:00,N,18,55,0,U,N,N,U,N,Y,Y,-999,17,G14533,PL,GULF OF MEXICO,4.007333185232471,1999-07-02,1999,-0.26618659175188686
GOM00258,JC,OFFSHORE PLATFORM,REMOVED,28.1721205213,-95.5770844266,211111,CRUDE PETROLEUM AND NATURAL GAS EXTRACTION,BOEM/BSEE,5/3/2016 0:00:00,UNVERIFIED,6/20/2016 0:00:00,466,1,NOT AVAILABLE,SHELL OFFSHORE INC.,THIRD PARTY,NONE,6/19/1999 0:00:00,6/22/2001 0:00:00,N,30,133,0,U,N,N,U,N,U,Y,-999,A  19,G03936,BA,GULF OF MEXICO,4.890349128221754,1999-06-19,1999,0.01521339292098034
GOM00259,B,OFFSHORE PLATFORM,REMOVED,28.0709382903,-93.2715197097,211111,CRUDE PETROLEUM AND NATURAL GAS EXTRACTION,BOEM/BSEE,5/3/2016 0:00:00,UNVERIFIED,6/20/2016 0:00:00,470,1,NOT AVAILABLE,MCMORAN OIL & GAS LLC,THIRD PARTY,NONE,8/9/1999 0:00:00,6/27/2011 0:00:00,N,90,299,-999,U,N,N,U,N,U,Y,-999,617,G13852,WC,GULF OF MEXICO,5.700443573390687,1999-08-09,1999,0.7776857488456992
GOM00260,C,OFFSHORE PLATFORM,IN SERVICE,29.2806871385,-92.9567167406,211111,CRUDE PETROLEUM AND NATURAL GAS EXTRACTION,BOEM/BSEE,5/3/2016 0:00:00,UNVERIFIED,6/20/2016 0:00:00,471,1,NOT AVAILABLE,"ENVEN ENERGY VENTURES, LLC",THIRD PARTY,NONE,7/22/1999 0:00:00,,N,26,59,0,U,N,N,N,N,U,Y,-999,84,G14356,EC,GULF OF MEXICO,4.07753744390572,1999-07-22,1999,0.5972691701034529
GOM00261,3,OFFSHORE PLATFORM,REMOVED,29.3396437302,-93.9256464531,211111,CRUDE PETROLEUM AND NATURAL GAS EXTRACTION,BOEM/BSEE,5/3/2016 0:00:00,UNVERIFIED,6/20/2016 0:00:00,472,1,NOT AVAILABLE,APACHE CORP.,THIRD PARTY,NONE,7/6/1999 0:00:00,7/7/2004 0:00:00,N,120,45,0,U,N,N,U,N,U,N,-999,87,G15772,HI,GULF OF MEXICO,3.80666248977032,1999-07-06,1999,0.05509392475751662
